district_name,city_name,city_id,max_lat,min_lat,max_lng,min_lng
长安区,石家庄市,130100,38.132405,38.035595,114.707377,114.480167
桥西区,石家庄市,130100,38.073279,37.972268,114.512256,114.376652
新华区,石家庄市,130100,38.168145,38.043407,114.502489,114.374272
井陉矿区,石家庄市,130100,38.138606,38.003587,114.111359,113.987862
裕华区,石家庄市,130100,38.058403,37.967624,114.682061,114.490083
藁城区,石家庄市,130100,38.313217,37.850722,114.987399,114.652546
鹿泉区,石家庄市,130100,38.275029,37.886518,114.515972,114.188303
栾城区,石家庄市,130100,37.997773,37.795454,114.802773,114.4885
井陉县,石家庄市,130100,38.217779,37.690869,114.303865,113.810063
正定县,石家庄市,130100,38.357865,38.102839,114.728899,114.392276
行唐县,石家庄市,130100,38.706574,38.348768,114.694277,114.166753
灵寿县,石家庄市,130100,38.758387,38.243606,114.484984,113.827684
高邑县,石家庄市,130100,37.696748,37.553011,114.725981,114.468932
深泽县,石家庄市,130100,38.290944,38.116161,115.368529,115.087918
赞皇县,石家庄市,130100,37.770317,37.434872,114.52336,114.022694
无极县,石家庄市,130100,38.293321,38.047519,115.129644,114.786253
平山县,石家庄市,130100,38.763298,38.162854,114.284122,113.525437
元氏县,石家庄市,130100,37.925635,37.667629,114.648693,114.178394
赵县,石家庄市,130100,37.888084,37.624376,115.085288,114.608977
辛集市,石家庄市,130100,38.135009,37.629573,115.483611,115.120379
晋州市,石家庄市,130100,38.170902,37.792311,115.221382,114.964782
新乐市,石家庄市,130100,38.497642,38.25751,114.943017,114.506171
路南区,唐山市,130200,39.633913,39.486758,118.279782,118.121836
路北区,唐山市,130200,39.714324,39.58239,118.244026,117.983762
古冶区,唐山市,130200,39.820285,39.587001,118.579615,118.331063
开平区,唐山市,130200,39.805153,39.565221,118.372859,118.167146
丰南区,唐山市,130200,39.660008,39.165832,118.454747,117.520868
丰润区,唐山市,130200,40.066611,39.561234,118.360595,117.763786
曹妃甸区,唐山市,130200,39.450024,38.904447,118.723119,118.139629
滦南县,唐山市,130200,39.663048,38.980872,118.861347,118.144655
乐亭县,唐山市,130200,39.574781,39.00827,119.319506,118.677096
迁西县,唐山市,130200,40.464809,39.956131,118.618572,118.121833
玉田县,唐山市,130200,39.998926,39.530087,117.947274,117.503464
遵化市,唐山市,130200,40.355538,39.92496,118.234734,117.573174
迁安市,唐山市,130200,40.253419,39.849496,118.925443,118.447253
滦州市,唐山市,130200,39.974532,39.579173,118.839123,118.241984
竞秀区,保定市,130600,38.956739,38.808872,115.491674,115.336748
莲池区,保定市,130600,38.957106,38.78304,115.603728,115.380354
满城区,保定市,130600,39.126794,38.727786,115.489025,114.95462
清苑区,保定市,130600,38.925965,38.55076,115.763277,115.233927
徐水区,保定市,130600,39.165734,38.878956,115.783577,115.325212
涞水县,保定市,130600,39.952566,39.295323,115.818691,114.999739
阜平县,保定市,130600,39.137344,38.657791,114.538895,113.767545
定兴县,保定市,130600,39.331257,39.09891,115.974894,115.512658
唐县,保定市,130600,39.154375,38.618569,115.069079,114.472599
高阳县,保定市,130600,38.782439,38.510111,115.974988,115.621331
容城县,保定市,130600,39.138691,38.952602,116.075344,115.75454
涞源县,保定市,130600,39.693398,39.028154,115.08849,114.349017
望都县,保定市,130600,38.806664,38.509388,115.309036,115.02957
安新县,保定市,130600,39.036606,38.727196,116.125602,115.641442
易县,保定市,130600,39.599103,39.046738,115.642729,114.852986
曲阳县,保定市,130600,38.954893,38.473447,114.888657,114.413653
蠡县,保定市,130600,38.672275,38.340607,115.848504,115.475848
顺平县,保定市,130600,39.120149,38.742253,115.288936,114.840664
博野县,保定市,130600,38.577338,38.315859,115.651597,115.314506
雄县,保定市,130600,39.164298,38.920875,116.335359,116.029084
涿州市,保定市,130600,39.600833,39.352205,116.248349,115.743697
定州市,保定市,130600,38.67241,38.235197,115.264257,114.811515
安国市,保定市,130600,38.554894,38.23474,115.502319,115.179976
高碑店市,保定市,130600,39.387473,39.097346,116.221824,115.79018
桥东区,张家口市,130700,40.847389,40.663841,115.264204,114.849057
桥西区,张家口市,130700,40.96574,40.644642,114.973317,114.765956
宣化区,张家口市,130700,40.810339,40.154835,115.527012,114.701736
下花园区,张家口市,130700,40.631878,40.438527,115.496626,115.131642
万全区,张家口市,130700,41.020608,40.675849,114.841732,114.352862
崇礼区,张家口市,130700,41.294266,40.777351,115.572896,114.7966
张北县,张家口市,130700,41.576113,40.951946,115.460414,114.181377
康保县,张家口市,130700,42.149634,41.428073,114.939182,114.199489
沽源县,张家口市,130700,41.945133,41.234336,116.083978,114.850201
尚义县,张家口市,130700,41.538212,40.730761,114.451233,113.819304
蔚县,张家口市,130700,40.198955,39.55574,115.070484,114.198479
阳原县,张家口市,130700,40.378461,39.897619,114.813417,113.910621
怀安县,张家口市,130700,40.761104,40.343283,114.802336,114.139525
怀来县,张家口市,130700,40.587881,40.065471,115.968982,115.284608
涿鹿县,张家口市,130700,40.491974,39.672634,115.513205,114.928469
赤城县,张家口市,130700,41.38999,40.512756,116.465844,115.433879
安次区,廊坊市,131000,39.549315,39.142835,116.892761,116.596508
广阳区,廊坊市,131000,39.624704,39.452635,116.826202,116.401707
固安县,廊坊市,131000,39.517344,39.132183,116.481852,116.116676
永清县,廊坊市,131000,39.478938,39.129647,116.750578,116.378348
香河县,廊坊市,131000,39.858042,39.616979,117.2059,116.882759
大城县,廊坊市,131000,38.874714,38.470316,116.775063,116.36639
文安县,廊坊市,131000,39.059096,38.736334,116.759353,116.19876
大厂回族自治县,廊坊市,131000,39.983479,39.822998,117.071854,116.812298
霸州市,廊坊市,131000,39.220792,38.984127,116.926122,116.262826
三河市,廊坊市,131000,40.085011,39.808154,117.259987,116.757202
小店区,太原市,140100,37.851319,37.595752,112.694316,112.401751
迎泽区,太原市,140100,37.920519,37.804718,112.783992,112.536611
杏花岭区,太原市,140100,37.97768,37.861385,112.778493,112.537081
尖草坪区,太原市,140100,38.07505,37.880511,112.649915,112.352937
万柏林区,太原市,140100,37.981277,37.781115,112.54321,112.267749
晋源区,太原市,140100,37.82296,37.606981,112.54944,112.326689
清徐县,太原市,140100,37.781115,37.458858,112.628268,112.171971
阳曲县,太原市,140100,38.421313,37.937969,113.156613,112.205474
娄烦县,太原市,140100,38.229994,37.847823,112.052214,111.515924
古交市,太原市,140100,38.176008,37.669077,112.342814,111.734661
榆次区,晋中市,140700,37.881897,37.397601,113.111902,112.578509
太谷区,晋中市,140700,37.55884,37.212534,113.047495,112.47626
榆社县,晋中市,140700,37.399487,36.871893,113.214664,112.652537
左权县,晋中市,140700,37.276492,36.74434,113.794941,113.104345
和顺县,晋中市,140700,37.58422,37.063401,113.936607,113.067702
昔阳县,晋中市,140700,37.727853,37.330233,114.139712,113.335789
寿阳县,晋中市,140700,38.092872,37.539689,113.453825,112.765536
祁县,晋中市,140700,37.485495,37.079711,112.689433,112.220623
平遥县,晋中市,140700,37.341598,36.933867,112.55104,111.940549
灵石县,晋中市,140700,36.999051,36.650121,112.011688,111.412268
介休市,晋中市,140700,37.180647,36.839515,112.17637,111.735372
新城区,呼和浩特市,150100,41.133446,40.812373,112.047465,111.599757
回民区,呼和浩特市,150100,40.949698,40.789329,111.675561,111.443046
玉泉区,呼和浩特市,150100,40.808896,40.632973,111.741099,111.508586
赛罕区,呼和浩特市,150100,40.969462,40.609352,112.188784,111.672476
土默特左旗,呼和浩特市,150100,40.930154,40.423155,111.811699,110.781551
托克托县,呼和浩特市,150100,40.596137,40.097612,111.545541,111.027981
和林格尔县,呼和浩特市,150100,40.691516,39.97546,112.311648,111.433866
清水河县,呼和浩特市,150100,40.182424,39.588911,112.116398,111.358084
武川县,呼和浩特市,150100,41.387432,40.785876,111.879318,110.517434
东河区,包头市,150200,40.653553,40.461924,110.444099,109.950532
昆都仑区,包头市,150200,40.813202,40.604928,109.873692,109.61222
青山区,包头市,150200,40.744388,40.618473,110.09346,109.839264
石拐区,包头市,150200,40.894599,40.588309,110.551529,110.02268
白云鄂博矿区,包头市,150200,41.936916,41.648068,110.058991,109.827595
九原区,包头市,150200,40.748581,40.482063,110.058245,109.399657
土默特右旗,包头市,150200,40.849434,40.244327,111.127491,110.239218
固阳县,包头市,150200,41.49977,40.724487,110.746903,109.619213
达尔罕茂明安联合旗,包头市,150200,42.738521,41.240089,111.443465,109.277392
红山区,赤峰市,150400,42.346365,42.032615,119.183623,118.844975
元宝山区,赤峰市,150400,42.425624,41.933948,119.508032,119.028064
松山区,赤峰市,150400,42.722553,42.03054,119.656054,117.792308
阿鲁科尔沁旗,赤峰市,150400,45.252308,43.370192,120.987609,119.067428
巴林左旗,赤峰市,150400,44.784512,43.609684,119.814623,118.738959
巴林右旗,赤峰市,150400,44.468407,43.216371,120.079014,118.198741
林西县,赤峰市,150400,44.25974,43.245748,118.581049,117.638152
克什克腾旗,赤峰市,150400,44.235208,42.387608,118.458646,116.356502
翁牛特旗,赤峰市,150400,43.436656,42.466935,120.785234,117.832624
喀喇沁旗,赤峰市,150400,42.23912,41.563918,119.341272,118.130674
宁城县,赤峰市,150400,41.882149,41.282313,119.419897,118.26962
敖汉旗,赤峰市,150400,43.029934,41.697066,120.892458,119.501244
和平区,沈阳市,210100,41.817398,41.690589,123.445752,123.318461
沈河区,沈阳市,210100,41.847653,41.74836,123.581504,123.422597
大东区,沈阳市,210100,41.94727,41.776669,123.571155,123.448554
皇姑区,沈阳市,210100,41.912515,41.798358,123.486186,123.352858
铁西区,沈阳市,210100,41.836869,41.505097,123.402177,122.901204
苏家屯区,沈阳市,210100,41.721092,41.462876,123.791989,123.104938
浑南区,沈阳市,210100,42.076421,41.60471,123.814158,123.371763
沈北新区,沈阳市,210100,42.19288,41.878537,123.725138,123.272594
于洪区,沈阳市,210100,42.072761,41.715076,123.419108,123.112174
辽中区,沈阳市,210100,41.786552,41.199854,123.039474,122.476726
康平县,沈阳市,210100,43.042711,42.515777,123.626288,122.747329
法库县,沈阳市,210100,42.657223,42.138726,123.759323,122.744981
新民市,沈阳市,210100,42.288597,41.70978,123.344111,122.422106
中山区,大连市,210200,38.946484,38.640973,122.170643,121.614671
西岗区,大连市,210200,38.95002,38.862699,121.657631,121.586886
沙河口区,大连市,210200,38.948622,38.864024,121.610674,121.533481
甘井子区,大连市,210200,39.155586,38.793729,121.764739,121.158092
旅顺口区,大连市,210200,38.973722,38.719833,121.478077,120.975301
金州区,大连市,210200,39.539857,38.942488,122.303645,121.445129
普兰店区,大连市,210200,39.985024,39.305152,122.612613,121.853347
长海县,大连市,210200,39.30832,39.009699,123.227984,122.299951
瓦房店市,大连市,210200,40.120492,39.281186,122.285071,121.224006
庄河市,大连市,210200,40.205189,39.42694,123.518921,122.491329
新抚区,抚顺市,210400,41.880048,41.727676,124.011767,123.823681
东洲区,抚顺市,210400,42.073464,41.724675,124.40055,123.926555
望花区,抚顺市,210400,41.992352,41.597822,123.950918,123.66357
顺城区,抚顺市,210400,42.03361,41.858081,124.058014,123.759386
抚顺县,抚顺市,210400,41.927966,41.454963,124.452248,123.721757
新宾满族自治县,抚顺市,210400,41.985183,41.238835,125.470729,124.306315
清原满族自治县,抚顺市,210400,42.478881,41.805188,125.490053,124.341947
元宝区,丹东市,210600,40.230953,40.127741,124.420156,124.227691
振兴区,丹东市,210600,40.158546,39.745422,124.401364,124.102375
振安区,丹东市,210600,40.396936,40.071573,124.736568,124.091616
宽甸满族自治县,丹东市,210600,41.154818,40.216899,125.707761,124.346482
东港市,丹东市,210600,40.219443,39.745235,124.295452,123.376898
凤城市,丹东市,210600,41.100986,40.035123,124.545203,123.533746
南关区,长春市,220100,43.916643,43.513957,125.577422,125.259338
宽城区,长春市,220100,44.26314,43.894721,125.604339,125.002649
朝阳区,长春市,220100,43.898469,43.441011,125.387663,125.08803
二道区,长春市,220100,43.960187,43.757422,125.825651,125.351926
绿园区,长春市,220100,44.007254,43.795246,125.314721,125.061702
双阳区,长春市,220100,43.800164,43.262722,126.020604,125.447558
九台区,长春市,220100,44.528508,43.849066,126.50469,125.411882
农安县,长春市,220100,44.939433,43.900694,125.764296,124.545431
榆树市,长春市,220100,45.252686,44.512053,127.093726,126.037715
德惠市,长春市,220100,44.887584,44.219993,126.413201,125.330918
公主岭市,长春市,220100,44.159811,43.161456,125.31772,124.015699
昌邑区,吉林市,220200,44.19309,43.832612,126.603872,126.000174
龙潭区,吉林市,220200,44.307167,43.811131,126.860308,126.41445
船营区,吉林市,220200,43.98772,43.705093,126.56712,126.023368
丰满区,吉林市,220200,43.867782,43.445179,126.937681,126.36573
永吉县,吉林市,220200,43.88919,43.313099,126.661453,125.801755
蛟河市,吉林市,220200,44.146434,43.208523,127.924725,126.752613
桦甸市,吉林市,220200,43.484431,42.561476,127.852531,126.275246
舒兰市,吉林市,220200,44.648158,43.95903,127.756468,126.413201
磐石市,吉林市,220200,43.456434,42.668498,126.690588,125.645738
道里区,哈尔滨市,230100,45.789053,45.549539,126.635139,126.150185
南岗区,哈尔滨市,230100,45.783644,45.537352,126.721667,126.437888
道外区,哈尔滨市,230100,46.006342,45.726156,127.1208,126.623076
平房区,哈尔滨市,230100,45.635214,45.528458,126.772321,126.575209
松北区,哈尔滨市,230100,46.095985,45.732718,126.716871,126.169494
香坊区,哈尔滨市,230100,45.818919,45.595137,127.001268,126.565775
呼兰区,哈尔滨市,230100,46.420763,45.843701,127.31049,126.383345
阿城区,哈尔滨市,230100,45.79904,45.170375,127.65786,126.675779
双城区,哈尔滨市,230100,45.712883,45.133527,126.721608,125.687894
依兰县,哈尔滨市,230100,46.658119,45.846048,130.240839,129.199185
方正县,哈尔滨市,230100,46.161416,45.548717,129.564561,128.234573
宾县,哈尔滨市,230100,46.037555,45.518932,128.329126,126.936624
巴彦县,哈尔滨市,230100,46.674386,45.908288,127.708649,126.763799
木兰县,哈尔滨市,230100,46.605821,45.906455,128.315089,127.534282
通河县,哈尔滨市,230100,46.625686,45.875235,129.435621,128.155965
延寿县,哈尔滨市,230100,45.759528,45.173104,129.082694,127.913659
尚志市,哈尔滨市,230100,45.592028,44.490781,129.211084,127.378452
五常市,哈尔滨市,230100,45.445769,44.062236,128.271709,126.553267
黄浦区,上海城区,310000,31.244242,31.187888,121.509905,121.456756
徐汇区,上海城区,310000,31.220194,31.100756,121.475985,121.391507
长宁区,上海城区,310000,31.243981,31.177781,121.439464,121.331804
静安区,上海城区,310000,31.3214,31.21441,121.482989,121.418646
普陀区,上海城区,310000,31.302885,31.218276,121.451467,121.326069
虹口区,上海城区,310000,31.316035,31.24192,121.517651,121.460051
杨浦区,上海城区,310000,31.346799,31.246951,121.569525,121.4854
闵行区,上海城区,310000,31.259628,30.975909,121.575445,121.239933
宝山区,上海城区,310000,31.512056,31.265239,121.525486,121.299931
嘉定区,上海城区,310000,31.49676,31.227132,121.380891,121.106542
浦东新区,上海城区,310000,31.394788,30.777097,122.012615,121.457268
金山区,上海城区,310000,30.951044,30.675593,121.478769,120.989122
松江区,上海城区,310000,31.160189,30.89434,121.372022,121.024883
青浦区,上海城区,310000,31.292081,30.93922,121.323858,120.856804
奉贤区,上海城区,310000,31.014954,30.756343,121.781157,121.351156
崇明区,上海城区,310000,31.872716,31.255658,122.247149,121.118496
玄武区,南京市,320100,32.106133,32.014837,118.911862,118.783824
秦淮区,南京市,320100,32.042902,31.974724,118.88064,118.763979
建邺区,南京市,320100,32.092952,31.955861,118.768467,118.653251
鼓楼区,南京市,320100,32.132457,32.029106,118.80694,118.718702
浦口区,南京市,320100,32.251049,31.841579,118.776745,118.363373
栖霞区,南京市,320100,32.245159,32.025505,119.241663,118.764751
雨花台区,南京市,320100,32.013666,31.866563,118.813228,118.588269
江宁区,南京市,320100,32.108727,31.618368,119.121715,118.482157
六合区,南京市,320100,32.614363,32.167248,119.086016,118.563729
溧水区,南京市,320100,31.789617,31.378943,119.234062,118.833208
高淳区,南京市,320100,31.48795,31.228098,119.218014,118.699756
锡山区,无锡市,320200,31.735813,31.477027,120.605759,120.314147
惠山区,无锡市,320200,31.760277,31.552491,120.391181,120.055577
滨湖区,无锡市,320200,31.594832,31.264004,120.362578,120.039707
梁溪区,无锡市,320200,31.630931,31.512825,120.352851,120.240331
新吴区,无锡市,320200,31.583424,31.416455,120.554102,120.313949
江阴市,无锡市,320200,31.99082,31.687476,120.600023,119.989132
宜兴市,无锡市,320200,31.610603,31.108647,120.110228,119.51966
鼓楼区,徐州市,320300,34.35633,34.263683,117.293737,117.115329
云龙区,徐州市,320300,34.284706,34.139047,117.349428,117.17921
贾汪区,徐州市,320300,34.540529,34.186666,117.720957,117.255741
泉山区,徐州市,320300,34.354811,34.197789,117.236221,117.068566
铜山区,徐州市,320300,34.817473,34.025901,117.702497,116.811099
丰县,徐州市,320300,34.940731,34.40627,116.873266,116.362723
沛县,徐州市,320300,34.975087,34.456026,117.15128,116.686484
睢宁县,徐州市,320300,34.172976,33.710785,118.188393,117.518047
新沂市,徐州市,320300,34.474856,34.096666,118.674072,118.03561
邳州市,徐州市,320300,34.679021,34.116889,118.184808,117.603189
天宁区,常州市,320400,31.870531,31.723927,120.185181,119.921262
钟楼区,常州市,320400,31.848905,31.74066,119.96059,119.736298
新北区,常州市,320400,32.059834,31.796762,120.021216,119.753613
武进区,常州市,320400,31.808554,31.332446,120.205741,119.671945
金坛区,常州市,320400,31.885497,31.558709,119.753676,119.304615
溧阳市,常州市,320400,31.684178,31.152529,119.616016,119.140539
虎丘区,苏州市,320500,31.420615,31.219913,120.80798,120.206594
吴中区,苏州市,320500,31.435865,30.925752,120.901511,119.920013
相城区,苏州市,320500,31.550994,31.335554,120.830331,120.317588
姑苏区,苏州市,320500,31.379136,31.249649,120.655236,120.528367
吴江区,苏州市,320500,31.223879,30.75784,120.905026,120.356824
常熟市,苏州市,320500,31.836711,31.493775,121.101216,120.543085
张家港市,苏州市,320500,32.045827,31.720453,120.889815,120.368882
昆山市,苏州市,320500,31.540929,31.103895,121.161286,120.808456
太仓市,苏州市,320500,31.76252,31.364642,121.372212,120.97571
通州区,南通市,320600,32.259625,31.861107,121.541001,120.62688
崇川区,南通市,320600,32.142521,31.783044,121.082947,120.732568
海门区,南通市,320600,32.153234,31.759078,121.544484,121.034807
如东县,南通市,320600,32.633811,32.171739,121.598095,120.697662
启东市,南通市,320600,32.123027,31.617039,121.975185,121.433283
如皋市,南通市,320600,32.490358,32.000988,120.838915,120.343216
海安市,南通市,320600,32.711134,32.357994,120.98172,120.202315
淮安区,淮安市,320800,33.760213,33.283461,119.62,118.998179
淮阴区,淮安市,320800,33.919593,33.34584,119.182826,118.746912
清江浦区,淮安市,320800,33.691426,33.338037,119.229878,118.888577
洪泽区,淮安市,320800,33.399423,33.047844,119.163137,118.488541
涟水县,淮安市,320800,34.093509,33.627332,119.645995,118.997317
盱眙县,淮安市,320800,33.243949,32.716039,118.917357,118.201926
金湖县,淮安市,320800,33.212778,32.798908,119.364171,118.814312
亭湖区,盐城市,320900,33.635937,33.165635,120.649963,119.981799
盐都区,盐城市,320900,33.422253,33.130908,120.222399,119.685684
大丰区,盐城市,320900,33.577368,32.910611,120.917824,120.215701
响水县,盐城市,320900,34.481984,33.945403,120.103706,119.503886
滨海县,盐城市,320900,34.391621,33.80126,120.359852,119.63425
阜宁县,盐城市,320900,33.926504,33.448203,120.001331,119.456469
射阳县,盐城市,320900,34.12191,33.451514,120.605384,119.925716
建湖县,盐城市,320900,33.685056,33.280726,120.093695,119.566877
东台市,盐城市,320900,33.025779,32.571157,120.981368,120.107829
京口区,镇江市,321100,32.285228,32.097152,119.826853,119.44024
润州区,镇江市,321100,32.262499,32.086878,119.572633,119.292464
丹徒区,镇江市,321100,32.283021,31.825741,119.708386,119.22901
丹阳市,镇江市,321100,32.13465,31.73115,119.898969,119.404728
扬中市,镇江市,321100,32.318916,32.002334,119.975506,119.694609
句容市,镇江市,321100,32.216296,31.625209,119.385127,118.969449
上城区,杭州市,330100,30.392776,30.192838,120.2955,120.137109
拱墅区,杭州市,330100,30.40232,30.257789,120.219011,120.086919
西湖区,杭州市,330100,30.355444,30.075476,120.183006,119.996338
滨江区,杭州市,330100,30.237666,30.136342,120.236837,120.124391
萧山区,杭州市,330100,30.297685,29.841959,120.692226,120.077128
余杭区,杭州市,330100,30.563114,30.158697,120.150484,119.68109
富阳区,杭州市,330100,30.196952,29.744438,120.147468,119.436381
临安区,杭州市,330100,30.443375,29.933075,119.868309,118.845696
临平区,杭州市,330100,30.521899,30.31067,120.345352,120.114575
钱塘区,杭州市,330100,30.389453,30.230826,120.721945,120.293256
桐庐县,杭州市,330100,30.088806,29.58764,119.973804,119.180603
淳安县,杭州市,330100,30.035265,29.188757,119.348291,118.344933
建德市,杭州市,330100,29.770956,29.205192,119.76974,118.900435
海曙区,宁波市,330200,29.949704,29.724149,121.560954,121.139375
江北区,宁波市,330200,30.056325,29.872437,121.645925,121.360702
北仑区,宁波市,330200,29.990799,29.708927,122.15845,121.652698
镇海区,宁波市,330200,30.072124,29.8945,121.788396,121.466429
鄞州区,宁波市,330200,29.907535,29.612659,121.895312,121.457536
奉化区,宁波市,330200,29.787161,29.406053,121.780895,121.050913
象山县,宁波市,330200,29.655686,28.853255,122.279016,121.571979
宁海县,宁波市,330200,29.521242,29.091149,121.820319,121.158856
余姚市,宁波市,330200,30.352861,29.669692,121.425694,120.867041
慈溪市,宁波市,330200,30.489772,30.038452,121.63263,121.040086
鹿城区,温州市,330300,28.156686,27.967382,120.807333,120.385115
龙湾区,温州市,330300,27.99744,27.758743,120.941778,120.707564
瓯海区,温州市,330300,28.099193,27.848964,120.754852,120.3347
洞头区,温州市,330300,28.011184,27.686356,121.272939,120.833207
永嘉县,温州市,330300,28.61176,28.011853,120.987196,120.331689
平阳县,温州市,330300,27.761572,27.423606,121.135651,120.073606
苍南县,温州市,330300,27.570129,27.041356,120.859132,120.06622
文成县,温州市,330300,27.982736,27.563194,120.257062,119.7836
泰顺县,温州市,330300,27.808277,27.296038,120.24899,119.625321
瑞安市,温州市,330300,27.9877,27.603126,121.2287,120.174444
乐清市,温州市,330300,28.5383,27.949745,121.257836,120.785608
龙港市,温州市,330300,27.593186,27.467265,120.709198,120.466142
南湖区,嘉兴市,330400,30.841466,30.604247,120.981244,120.662346
秀洲区,嘉兴市,330400,30.971902,30.579722,120.82486,120.533581
嘉善县,嘉兴市,330400,31.030257,30.758958,121.037741,120.745942
海盐县,嘉兴市,330400,30.639069,30.271743,121.119212,120.727131
海宁市,嘉兴市,330400,30.591771,30.262322,120.867041,120.306213
平湖市,嘉兴市,330400,30.857097,30.476932,121.340278,120.951662
桐乡市,嘉兴市,330400,30.794684,30.468239,120.668004,120.295342
吴兴区,湖州市,330500,30.965233,30.61105,120.371653,119.865764
南浔区,湖州市,330500,30.927871,30.626796,120.489072,120.072549
德清县,湖州市,330500,30.694657,30.425408,120.34362,119.761453
长兴县,湖州市,330500,31.178782,30.722096,120.104716,119.556322
安吉县,湖州市,330500,30.867202,30.373325,119.893282,119.236936
越城区,绍兴市,330600,30.130113,29.868754,120.806901,120.500542
柯桥区,绍兴市,330600,30.286319,29.697248,120.787201,120.286862
上虞区,绍兴市,330600,30.271743,29.731394,121.106487,120.644759
新昌县,绍兴市,330600,29.556796,29.223287,121.231576,120.699306
诸暨市,绍兴市,330600,29.982097,29.354537,120.539481,119.888597
嵊州市,绍兴市,330600,29.829163,29.325531,121.120463,120.468577
婺城区,金华市,330700,29.240741,28.728981,119.769993,119.304476
金东区,金华市,330700,29.306752,28.992274,119.950318,119.650351
武义县,金华市,330700,29.052344,28.523678,119.975087,119.455574
浦江县,金华市,330700,29.682253,29.347022,120.118625,119.706787
磐安县,金华市,330700,29.315973,28.827947,120.783607,120.303181
兰溪市,金华市,330700,29.456187,29.085598,119.899112,119.228702
义乌市,金华市,330700,29.549477,29.034161,120.282439,119.819712
东阳市,金华市,330700,29.495203,28.966152,120.737053,120.077064
永康市,金华市,330700,29.10227,28.758067,120.349364,119.89535
柯城区,衢州市,330800,29.190585,28.823454,118.954532,118.684907
衢江区,衢州市,330800,29.332645,28.519903,119.116657,118.737633
常山县,衢州市,330800,29.215729,28.766657,118.764604,118.256841
开化县,衢州市,330800,29.49693,28.902981,118.636927,118.028279
龙游县,衢州市,330800,29.290386,28.733326,119.345556,119.034598
江山市,衢州市,330800,28.888319,28.238192,118.818265,118.383401
椒江区,台州市,331000,28.776191,28.387581,121.945198,121.3454
黄岩区,台州市,331000,28.725729,28.472461,121.365216,120.797602
路桥区,台州市,331000,28.641849,28.443575,121.671119,121.291817
三门县,台州市,331000,29.199456,28.835539,121.808756,121.205078
天台县,台州市,331000,29.340145,28.951306,121.265224,120.691546
仙居县,台州市,331000,28.993408,28.465019,120.935844,120.289981
温岭市,台州市,331000,28.530102,28.20962,121.739444,121.170848
临海市,台州市,331000,29.066543,28.638956,121.942713,120.827017
玉环市,台州市,331000,28.319987,28.012265,121.534476,121.108392
瑶海区,合肥市,340100,32.059082,31.816126,117.453097,117.288102
庐阳区,合肥市,340100,31.964073,31.853348,117.30004,117.067382
蜀山区,合肥市,340100,32.027716,31.673151,117.281181,116.855811
包河区,合肥市,340100,31.86272,31.636922,117.432206,117.233438
长丰县,合肥市,340100,32.536642,31.926284,117.444991,116.978401
肥东县,合肥市,340100,32.269459,31.559753,117.885096,117.321336
肥西县,合肥市,340100,31.954289,31.499259,117.428758,116.687475
庐江县,合肥市,340100,31.56857,30.95099,117.575389,117.032249
巢湖市,合肥市,340100,32.002259,31.271037,117.973318,117.436086
镜湖区,芜湖市,340200,31.388899,31.145601,118.497755,118.33813
鸠江区,芜湖市,340200,31.538232,31.172549,118.575124,117.993629
弋江区,芜湖市,340200,31.328606,31.098768,118.454503,118.07453
湾沚区,芜湖市,340200,31.311747,30.937573,118.733578,118.431159
繁昌区,芜湖市,340200,31.206158,30.960404,118.370514,117.983599
南陵县,芜湖市,340200,31.176526,30.640853,118.513291,117.966447
无为市,芜湖市,340200,31.503687,30.939487,118.136625,117.482556
花山区,马鞍山市,340500,31.778359,31.661921,118.697696,118.418665
雨山区,马鞍山市,340500,31.710777,31.570442,118.6502,118.441956
博望区,马鞍山市,340500,31.682613,31.449258,118.886286,118.581058
当涂县,马鞍山市,340500,31.697424,31.290669,118.86963,118.376538
含山县,马鞍山市,340500,31.906244,31.399137,118.224921,117.901366
和县,马鞍山市,340500,32.05961,31.443503,118.504736,118.083499
迎江区,安庆市,340800,30.706637,30.465862,117.252585,117.035342
大观区,安庆市,340800,30.585896,30.354473,117.058194,116.750134
宜秀区,安庆市,340800,30.773166,30.519166,117.194558,116.953461
怀宁县,安庆市,340800,30.817834,30.348019,116.998695,116.478455
太湖县,安庆市,340800,30.75986,30.123763,116.499527,115.762324
宿松县,安庆市,340800,30.42814,29.782063,116.585568,115.884912
望江县,安庆市,340800,30.430659,30.045405,116.928798,116.440214
岳西县,安庆市,340800,31.182047,30.653894,116.562682,115.846974
桐城市,安庆市,340800,31.268459,30.679771,117.241369,116.686184
潜山市,安庆市,340800,31.074997,30.454655,116.775085,116.240927
鼓楼区,福州市,350100,26.124379,26.05842,119.322631,119.245128
台江区,福州市,350100,26.073622,26.03702,119.368695,119.271798
仓山区,福州市,350100,26.104756,25.95799,119.443704,119.222723
马尾区,福州市,350100,26.157602,25.976856,119.663246,119.376261
晋安区,福州市,350100,26.411724,26.028725,119.447891,119.17825
长乐区,福州市,350100,26.074383,25.667545,119.997654,119.402789
闽侯县,福州市,350100,26.603824,25.791429,119.425504,118.872424
连江县,福州市,350100,26.461948,26.0816,120.516189,119.278111
罗源县,福州市,350100,26.634377,26.381581,119.838009,119.123038
闽清县,福州市,350100,26.543521,25.921166,119.019072,118.515511
永泰县,福州市,350100,26.070657,25.659089,119.218124,118.38209
平潭县,福州市,350100,25.713768,25.249862,119.944273,119.560731
福清市,福州市,350100,25.849571,25.304391,119.681323,119.067393
思明区,厦门市,350200,24.504797,24.419683,118.212303,118.056348
海沧区,厦门市,350200,24.643437,24.418307,118.089642,117.886012
湖里区,厦门市,350200,24.561801,24.473951,118.204456,118.072162
集美区,厦门市,350200,24.750415,24.53608,118.137934,117.941036
同安区,厦门市,350200,24.902792,24.577218,118.263309,117.913026
翔安区,厦门市,350200,24.832494,24.512498,118.414778,118.153085
鲤城区,泉州市,350500,24.943216,24.865389,118.603123,118.496789
丰泽区,泉州市,350500,24.995715,24.845679,118.69595,118.539346
洛江区,泉州市,350500,25.302374,24.928223,118.722895,118.556928
泉港区,泉州市,350500,25.242689,25.084184,119.005649,118.70524
惠安县,泉州市,350500,25.132159,24.820568,119.047634,118.637915
安溪县,泉州市,350500,25.420799,24.847629,118.296137,117.555387
永春县,泉州市,350500,25.556551,25.214951,118.535827,117.691436
德化县,泉州市,350500,25.937016,25.395537,118.55008,117.936886
金门县,泉州市,350500,24.542998,24.371716,118.479456,118.142765
石狮市,泉州市,350500,24.815886,24.66261,118.786519,118.584364
晋江市,泉州市,350500,24.90375,24.5068,118.702965,118.412793
南安市,泉州市,350500,25.31007,24.561321,118.594897,118.13315
芗城区,漳州市,350600,24.69892,24.484256,117.721185,117.492954
龙文区,漳州市,350600,24.605452,24.477902,117.817736,117.668088
龙海区,漳州市,350600,24.590159,24.157657,118.24053,117.499355
长泰区,漳州市,350600,24.895686,24.565441,117.965405,117.601984
云霄县,漳州市,350600,24.229888,23.751794,117.534442,117.13006
漳浦县,漳州市,350600,24.35449,23.701234,118.044407,117.417475
诏安县,漳州市,350600,24.16584,23.561634,117.375655,116.926584
东山县,漳州市,350600,23.783591,23.528547,117.694974,117.291259
南靖县,漳州市,350600,24.990519,24.434699,117.612628,117.01497
平和县,漳州市,350600,24.576828,24.035132,117.522911,116.895719
华安县,漳州市,350600,25.211693,24.629354,117.74004,117.280676
东湖区,南昌市,360100,28.793292,28.667831,115.985652,115.868646
西湖区,南昌市,360100,28.675863,28.600045,115.919847,115.832855
青云谱区,南昌市,360100,28.65524,28.583133,115.956134,115.885108
青山湖区,南昌市,360100,28.734449,28.582793,116.055757,115.919015
新建区,南昌市,360100,29.122388,28.334441,116.409791,115.531596
红谷滩区,南昌市,360100,28.74461,28.360507,115.893057,115.65004
南昌县,南昌市,360100,28.960684,28.26829,116.324081,115.808159
安义县,南昌市,360100,29.018474,28.580219,115.764366,115.438705
进贤县,南昌市,360100,28.754164,28.157839,116.565482,116.025986
濂溪区,九江市,360400,29.768086,29.516946,116.227049,115.87537
浔阳区,九江市,360400,29.761907,29.676096,116.086503,115.943698
柴桑区,九江市,360400,29.850194,29.344955,116.261459,115.620049
武宁县,九江市,360400,29.572157,28.873386,115.448205,114.478009
修水县,九江市,360400,29.365598,28.685179,114.945267,113.94206
永修县,九江市,360400,29.359598,28.892254,116.25446,115.386556
德安县,九江市,360400,29.542703,29.265603,115.821411,115.377531
都昌县,九江市,360400,29.632393,28.990243,116.646513,116.029931
湖口县,九江市,360400,29.855731,29.490536,116.421967,116.1265
彭泽县,九江市,360400,30.077213,29.572565,116.900133,116.371569
瑞昌市,九江市,360400,29.848661,29.391199,115.775116,115.105903
共青城市,九江市,360400,29.382628,29.146354,115.92943,115.693285
庐山市,九江市,360400,29.638052,29.148114,116.142124,115.849508
章贡区,赣州市,360700,25.977632,25.655899,115.066203,114.784801
南康区,赣州市,360700,26.236242,25.463443,114.883896,114.490591
赣县区,赣州市,360700,26.272767,25.431324,115.365749,114.709153
信丰县,赣州市,360700,25.54525,24.985838,115.317323,114.571679
大余县,赣州市,360700,25.618421,25.250357,114.709131,114.007846
上犹县,赣州市,360700,26.168276,25.70164,114.66296,114.019007
崇义县,赣州市,360700,25.903844,25.396741,114.626495,113.913607
安远县,赣州市,360700,25.623453,24.868908,115.639866,115.160663
定南县,赣州市,360700,25.058944,24.56235,115.387841,114.804209
全南县,赣州市,360700,25.128714,24.563064,114.870859,114.168472
宁都县,赣州市,360700,27.143656,26.083964,116.288733,115.675043
于都县,赣州市,360700,26.345161,25.554083,115.835438,115.182263
兴国县,赣州市,360700,26.695416,26.047616,115.86551,115.026526
会昌县,赣州市,360700,25.914526,25.132749,116.037306,115.480962
寻乌县,赣州市,360700,25.240461,24.539362,115.928859,115.330872
石城县,赣州市,360700,26.599148,25.96292,116.638211,116.102125
瑞金市,赣州市,360700,26.292226,25.545828,116.370139,115.691037
龙南市,赣州市,360700,25.015119,24.486252,114.992828,114.387119
吉州区,吉安市,360800,27.290552,27.031403,115.114834,114.802809
青原区,吉安市,360800,27.160783,26.652696,115.511402,114.989208
吉安县,吉安市,360800,27.628793,26.819789,115.06409,114.418248
吉水县,吉安市,360800,27.56337,26.827085,115.627685,114.868507
峡江县,吉安市,360800,27.761874,27.412334,115.538157,114.880826
新干县,吉安市,360800,27.960504,27.499138,115.735105,115.252941
永丰县,吉安市,360800,27.518455,26.641831,115.935357,115.279488
泰和县,吉安市,360800,26.965812,26.447974,115.334938,114.425607
遂川县,吉安市,360800,26.711166,25.972184,114.77159,113.944511
万安县,吉安市,360800,26.730661,26.143434,115.099159,114.513784
安福县,吉安市,360800,27.607716,27.065964,114.798611,114.021786
永新县,吉安市,360800,27.223692,26.720393,114.483713,113.834587
井冈山市,吉安市,360800,26.833249,26.3642,114.481733,113.842524
信州区,上饶市,361100,28.637228,28.374191,118.160299,117.927586
广丰区,上饶市,361100,28.624757,28.057459,118.487106,118.029483
广信区,上饶市,361100,28.837274,27.964939,118.225363,117.699932
玉山县,上饶市,361100,29.016102,28.493627,118.433863,117.861674
铅山县,上饶市,361100,28.401129,27.800311,117.99852,117.432237
横峰县,上饶市,361100,28.732601,28.285443,117.780483,117.493
弋阳县,上饶市,361100,28.784494,28.066547,117.632932,117.222202
余干县,上饶市,361100,29.053144,28.341078,116.906774,116.237892
鄱阳县,上饶市,361100,29.699254,28.779096,117.092485,116.4005
万年县,上饶市,361100,28.898833,28.496329,117.261422,116.777404
婺源县,上饶市,361100,29.578367,29.015896,118.209388,117.372703
德兴市,上饶市,361100,29.283174,28.638313,118.110679,117.388596
历下区,济南市,370100,36.710064,36.592259,117.180644,117.012698
市中区,济南市,370100,36.668881,36.483786,117.161777,116.817208
槐荫区,济南市,370100,36.746089,36.616388,116.989045,116.800521
天桥区,济南市,370100,36.86563,36.66395,117.084439,116.865544
历城区,济南市,370100,36.897078,36.330329,117.380484,116.933406
长清区,济南市,370100,36.700843,36.243195,117.080892,116.520384
章丘区,济南市,370100,37.076264,36.435405,117.747306,117.182712
济阳区,济南市,370100,37.245815,36.782789,117.459746,116.875023
莱芜区,济南市,370100,36.553854,36.047719,117.934558,117.33342
钢城区,济南市,370100,36.285839,35.990621,117.975332,117.689303
平阴县,济南市,370100,36.384254,36.031141,116.619933,116.226065
商河县,济南市,370100,37.532886,37.113516,117.445268,116.983999
市南区,青岛市,370200,36.092258,36.041385,120.426663,120.285819
市北区,青岛市,370200,36.160892,36.067551,120.434316,120.305016
黄岛区,青岛市,370200,36.145594,35.575601,120.333393,119.514825
崂山区,青岛市,370200,36.3415,35.888165,120.955248,120.411012
李沧区,青岛市,370200,36.238451,36.134346,120.51521,120.343439
城阳区,青岛市,370200,36.399433,36.173321,120.581464,120.106749
即墨区,青岛市,370200,36.632493,36.222298,121.017919,120.135783
胶州市,青岛市,370200,36.498984,36.010316,120.216083,119.631677
平度市,青岛市,370200,37.046905,36.471821,120.325672,119.530557
莱西市,青岛市,370200,37.149118,36.571829,120.660567,120.207369
淄川区,淄博市,370300,36.760798,36.375168,118.25156,117.690518
张店区,淄博市,370300,36.917043,36.710686,118.207063,117.934724
博山区,淄博市,370300,36.59657,36.268375,118.224748,117.722259
临淄区,淄博市,370300,37.006725,36.631634,118.497429,118.116885
周村区,淄博市,370300,36.892228,36.640986,117.980919,117.695126
桓台县,淄博市,370300,37.105207,36.861281,118.188031,117.837496
高青县,淄博市,370300,37.28265,37.062431,118.082957,117.550206
沂源县,淄博市,370300,36.391404,35.924326,118.522692,117.902591
芝罘区,烟台市,370600,37.635762,37.415496,121.555291,121.280534
福山区,烟台市,370600,37.726125,37.234215,121.367373,120.843195
牟平区,烟台市,370600,37.494692,37.072035,121.934174,121.155686
莱山区,烟台市,370600,37.527849,37.246214,121.565321,121.320382
蓬莱区,烟台市,370600,38.402247,37.416107,121.093412,120.583611
龙口市,烟台市,370600,37.791011,37.46017,120.751194,120.209571
莱阳市,烟台市,370600,37.161696,36.573937,120.992001,120.525024
莱州市,烟台市,370600,37.485246,36.988483,120.305035,119.558217
招远市,烟台市,370600,37.594717,37.077099,120.63806,120.148271
栖霞市,烟台市,370600,37.497227,37.085372,121.268453,120.551916
海阳市,烟台市,370600,37.175312,36.26216,121.478206,120.83971
潍城区,潍坊市,370700,36.824937,36.586553,119.117399,118.940499
寒亭区,潍坊市,370700,37.288187,36.72132,119.437813,118.894314
坊子区,潍坊市,370700,36.742619,36.273593,119.564821,119.065784
奎文区,潍坊市,370700,36.769463,36.608136,119.308926,119.096067
临朐县,潍坊市,370700,36.623045,36.067618,118.82775,118.235403
昌乐县,潍坊市,370700,36.773844,36.28212,119.179812,118.722765
青州市,潍坊市,370700,36.957091,36.407846,118.776121,118.176284
诸城市,潍坊市,370700,36.284139,35.709407,119.738039,119.01351
寿光市,潍坊市,370700,37.304466,36.719914,119.121795,118.544572
安丘市,潍坊市,370700,36.556186,36.084341,119.453982,118.739721
高密市,潍坊市,370700,36.690276,36.145219,120.015209,119.442708
昌邑市,潍坊市,370700,37.156524,36.442903,119.624685,119.217196
任城区,济宁市,370800,35.566296,35.127783,116.763952,116.401679
兖州区,济宁市,370800,35.724836,35.391665,116.897484,116.596313
微山县,济宁市,370800,35.330497,34.44969,117.410981,116.573934
鱼台县,济宁市,370800,35.169009,34.89492,116.814597,116.394469
金乡县,济宁市,370800,35.236979,34.849216,116.510642,116.11453
嘉祥县,济宁市,370800,35.638541,35.186626,116.515002,116.114085
汶上县,济宁市,370800,35.941014,35.514601,116.692742,116.309374
泗水县,济宁市,370800,35.798817,35.458624,117.596915,117.100694
梁山县,济宁市,370800,35.981899,35.614699,116.365761,115.870312
曲阜市,济宁市,370800,35.809741,35.448866,117.253124,116.851131
邹城市,济宁市,370800,35.507098,35.152165,117.479194,116.743976
泰山区,泰安市,370900,36.346757,36.091655,117.333483,117.059415
岱岳区,泰安市,370900,36.476049,35.875507,117.487939,116.848441
宁阳县,泰安市,370900,35.954052,35.678721,117.306499,116.609577
东平县,泰安市,370900,36.173759,35.774051,116.664892,116.048649
新泰市,泰安市,370900,36.111066,35.630463,117.999231,117.250454
肥城市,泰安市,370900,36.316525,35.884984,116.993613,116.4725
环翠区,威海市,371000,37.575228,37.217193,122.410345,121.865266
文登区,威海市,371000,37.346525,36.859377,122.315237,121.727611
荣成市,威海市,371000,37.45516,36.747327,122.71596,122.117459
乳山市,威海市,371000,37.146223,36.679497,121.863241,121.177558
兰山区,临沂市,371300,35.387198,35.019124,118.484989,118.111517
罗庄区,临沂市,371300,35.052199,34.757485,118.431043,118.099218
河东区,临沂市,371300,35.402462,34.829752,118.672549,118.367707
沂南县,临沂市,371300,35.770879,35.310683,118.740586,118.132339
郯城县,临沂市,371300,34.934932,34.377352,118.52454,118.078997
沂水县,临沂市,371300,36.206648,35.600546,119.067288,118.198021
兰陵县,临沂市,371300,35.094136,34.619507,118.301954,117.697706
费县,临沂市,371300,35.548,35.020763,118.248603,117.609854
平邑县,临沂市,371300,35.726038,35.128135,117.952951,117.418664
莒南县,临沂市,371300,35.393956,35.012448,119.203239,118.567548
蒙阴县,临沂市,371300,36.032512,35.440498,118.249489,117.750271
临沭县,临沂市,371300,35.098919,34.678243,118.865124,118.433693
牡丹区,菏泽市,371700,35.486807,35.034677,115.809388,115.187663
定陶区,菏泽市,371700,35.252701,34.959358,115.800087,115.341823
曹县,菏泽市,371700,35.053689,34.555567,115.877228,115.129224
单县,菏泽市,371700,34.947659,34.551606,116.408796,115.797216
成武县,菏泽市,371700,35.160997,34.8092,116.185336,115.737968
巨野县,菏泽市,371700,35.49535,35.103162,116.286225,115.776377
郓城县,菏泽市,371700,35.872783,35.359724,116.134367,115.653301
鄄城县,菏泽市,371700,35.751542,35.376928,115.731147,115.318834
东明县,菏泽市,371700,35.427796,34.968214,115.265123,114.819254
中原区,郑州市,410100,34.860223,34.703954,113.632646,113.453191
二七区,郑州市,410100,34.766461,34.600034,113.682375,113.504421
管城回族区,郑州市,410100,34.768866,34.613012,113.859662,113.657694
金水区,郑州市,410100,34.885651,34.734835,113.870156,113.613898
上街区,郑州市,410100,34.843908,34.714142,113.326189,113.245064
惠济区,郑州市,410100,34.968123,34.784066,113.801487,113.49732
中牟县,郑州市,410100,34.960025,34.435084,114.220961,113.789121
巩义市,郑州市,410100,34.864892,34.517349,113.278115,112.809842
荥阳市,郑州市,410100,34.989506,34.60669,113.522786,113.139799
新密市,郑州市,410100,34.665341,34.330831,113.679859,113.163485
新郑市,郑州市,410100,34.652112,34.274097,114.072929,113.510882
登封市,郑州市,410100,34.592697,34.262109,113.326752,112.721177
龙亭区,开封市,410200,34.939968,34.697411,114.45824,114.122491
顺河回族区,开封市,410200,34.85872,34.758345,114.495927,114.355747
鼓楼区,开封市,410200,34.800606,34.675081,114.368031,114.254348
禹王台区,开封市,410200,34.783842,34.702809,114.44612,114.320431
祥符区,开封市,410200,34.912463,34.508236,114.733141,114.150363
杞县,开封市,410200,34.763449,34.225222,114.937843,114.610476
通许县,开封市,410200,34.581448,34.25976,114.647719,114.308156
尉氏县,开封市,410200,34.617707,34.19727,114.456568,113.895671
兰考县,开封市,410200,35.0252,34.745386,115.267246,114.690555
老城区,洛阳市,410300,34.758231,34.664851,112.497399,112.389681
西工区,洛阳市,410300,34.734242,34.640472,112.465796,112.289897
瀍河回族区,洛阳市,410300,34.744695,34.670334,112.61813,112.470349
涧西区,洛阳市,410300,34.697287,34.59838,112.426605,112.282496
偃师区,洛阳市,410300,34.803935,34.467546,112.984738,112.617271
孟津区,洛阳市,410300,34.961364,34.718851,112.827295,112.21388
洛龙区,洛阳市,410300,34.710231,34.48492,112.703677,112.266076
新安县,洛阳市,410300,35.070236,34.602753,112.323002,111.883247
栾川县,洛阳市,410300,34.185988,33.657162,112.037198,111.203031
嵩县,洛阳市,410300,34.346101,33.570533,112.377098,111.702691
汝阳县,洛阳市,410300,34.35831,33.805896,112.620289,112.207654
宜阳县,洛阳市,410300,34.69669,34.271256,112.354575,111.753245
洛宁县,洛阳市,410300,34.629324,34.092484,111.832761,111.138444
伊川县,洛阳市,410300,34.544048,34.21264,112.776597,112.20597
红旗区,新乡市,410700,35.347563,35.197791,114.100647,113.871223
卫滨区,新乡市,410700,35.3247,35.223271,113.89394,113.785289
凤泉区,新乡市,410700,35.451791,35.331843,113.970471,113.733303
牧野区,新乡市,410700,35.399004,35.304767,113.998243,113.781756
新乡县,新乡市,410700,35.361471,35.059068,114.057034,113.707415
获嘉县,新乡市,410700,35.34664,35.031141,113.749271,113.518791
原阳县,新乡市,410700,35.186795,34.877702,114.275328,113.592067
延津县,新乡市,410700,35.478304,35.104168,114.430344,113.991343
封丘县,新乡市,410700,35.228196,34.885231,114.782212,114.242024
卫辉市,新乡市,410700,35.704817,35.327454,114.337255,113.868377
辉县市,新乡市,410700,35.837289,35.288692,113.954424,113.383155
长垣市,新乡市,410700,35.390783,34.990972,115.017248,114.488337
华龙区,濮阳市,410900,35.862747,35.678409,115.248965,114.887858
清丰县,濮阳市,410900,36.08447,35.77356,115.395982,114.920774
南乐县,濮阳市,410900,36.212988,35.981587,115.485169,115.014048
范县,濮阳市,410900,35.929887,35.630924,115.753128,115.352323
台前县,濮阳市,410900,36.112064,35.832936,116.100242,115.653076
濮阳县,濮阳市,410900,35.796723,35.337443,115.423596,114.874458
魏都区,许昌市,411000,34.094781,33.983963,113.885465,113.743481
建安区,许昌市,411000,34.185229,33.852744,114.088956,113.589223
鄢陵县,许昌市,411000,34.251933,33.770232,114.325057,114.050878
襄城县,许昌市,411000,34.029516,33.68753,113.763503,113.360738
禹州市,许昌市,411000,34.406932,33.987047,113.65866,113.066994
长葛市,许昌市,411000,34.337185,34.147199,114.140426,113.576673
川汇区,周口市,411600,33.712122,33.500086,114.857002,114.582163
淮阳区,周口市,411600,33.925608,33.411759,115.091302,114.653508
扶沟县,周口市,411600,34.337315,33.850135,114.621066,114.259876
西华县,周口市,411600,33.979693,33.604261,114.727035,114.09152
商水县,周口市,411600,33.7431,33.297341,114.869942,114.24909
沈丘县,周口市,411600,33.528312,33.082709,115.365005,114.968014
郸城县,周口市,411600,33.816707,33.42469,115.639743,115.010431
太康县,周口市,411600,34.284633,33.899824,115.140468,114.538473
鹿邑县,周口市,411600,34.087674,33.717614,115.654332,115.062661
项城市,周口市,411600,33.513503,33.052739,115.07097,114.681369
江岸区,武汉市,420100,30.698808,30.573439,114.402796,114.256993
江汉区,武汉市,420100,30.64163,30.563536,114.303674,114.22557
硚口区,武汉市,420100,30.63167,30.560804,114.28485,114.154149
汉阳区,武汉市,420100,30.604278,30.453777,114.298812,114.124982
武昌区,武汉市,420100,30.627291,30.334295,114.430561,114.260424
青山区,武汉市,420100,30.676852,30.567534,114.562749,114.343762
洪山区,武汉市,420100,30.693493,30.381904,114.640973,114.172861
东西湖区,武汉市,420100,30.786726,30.583465,114.293113,113.894193
汉南区,武汉市,420100,30.374886,30.178967,114.112935,113.755895
蔡甸区,武汉市,420100,30.684233,30.249608,114.227828,113.702281
江夏区,武汉市,420100,30.53337,29.969076,114.597036,114.036724
黄陂区,武汉市,420100,31.36126,30.666421,114.617578,114.15711
新洲区,武汉市,420100,31.037122,30.556477,115.082572,114.472917
黄石港区,黄石市,420200,30.261657,30.205534,115.101734,115.008749
西塞山区,黄石市,420200,30.219932,30.122518,115.272849,115.016068
下陆区,黄石市,420200,30.232198,30.159871,115.068542,114.908288
铁山区,黄石市,420200,30.241464,30.183066,114.940299,114.85698
阳新县,黄石市,420200,30.155927,29.508951,115.511592,114.712826
大冶市,黄石市,420200,30.326216,29.851858,115.183098,114.531394
西陵区,宜昌市,420500,30.757441,30.678264,111.372274,111.266405
伍家岗区,宜昌市,420500,30.69627,30.594266,111.471606,111.287211
点军区,宜昌市,420500,30.776691,30.557478,111.394817,110.955682
猇亭区,宜昌市,420500,30.634009,30.45898,111.521401,111.386211
夷陵区,宜昌市,420500,31.46294,30.540277,111.659918,110.856356
远安县,宜昌市,420500,31.373006,30.881913,111.885149,111.248447
兴山县,宜昌市,420500,31.56938,31.08756,111.119151,110.426867
秭归县,宜昌市,420500,31.188715,30.636344,111.007606,110.318271
长阳土家族自治县,宜昌市,420500,30.773384,30.195808,111.34395,110.350922
五峰土家族自治县,宜昌市,420500,30.414214,29.943074,111.355448,110.255636
宜都市,宜昌市,420500,30.596605,30.093052,111.606972,111.104796
当阳市,宜昌市,420500,31.193565,30.503565,112.086441,111.544334
枝江市,宜昌市,420500,30.660908,30.254351,112.049853,111.444969
襄城区,襄阳市,420600,32.076902,31.778181,112.234885,111.822911
樊城区,襄阳市,420600,32.252567,32.019524,112.175674,111.737074
襄州区,襄阳市,420600,32.474242,31.835829,112.563119,111.803249
南漳县,襄阳市,420600,32.008869,31.228218,112.158339,111.406321
谷城县,襄阳市,420600,32.497973,31.879252,111.874819,111.128271
保康县,襄阳市,420600,32.108222,31.346455,111.550821,110.763974
老河口市,襄阳市,420600,32.628729,32.172396,112.014372,111.533192
枣阳市,襄阳市,420600,32.425459,31.635614,113.118715,112.461849
宜城市,襄阳市,420600,31.902637,31.43008,112.752279,111.955216
梁子湖区,鄂州市,420700,30.364015,30.015509,114.742936,114.503813
华容区,鄂州市,420700,30.616841,30.345387,114.851973,114.583248
鄂城区,鄂州市,420700,30.438208,30.203408,115.088665,114.660761
芙蓉区,长沙市,430100,28.223802,28.172989,113.110949,112.976007
天心区,长沙市,430100,28.195624,27.965158,113.041285,112.927954
岳麓区,长沙市,430100,28.275305,27.971063,112.971803,112.612846
开福区,长沙市,430100,28.390882,28.195304,113.082179,112.907567
雨花区,长沙市,430100,28.189653,27.912705,113.186747,112.983956
望城区,长沙市,430100,28.559898,28.138147,113.049794,112.651128
长沙县,长沙市,430100,28.661612,28.030873,113.507366,112.978505
浏阳市,长沙市,430100,28.564896,27.848072,114.261264,113.177231
宁乡市,长沙市,430100,28.487831,27.87966,112.784684,111.896256
荷塘区,株洲市,430200,28.013721,27.827854,113.290566,113.136939
芦淞区,株洲市,430200,27.878536,27.743778,113.36249,113.113538
石峰区,株洲市,430200,28.024541,27.846409,113.258236,113.038443
天元区,株洲市,430200,27.853854,27.516852,113.148995,112.993804
渌口区,株洲市,430200,27.780175,27.204445,113.317219,112.969421
攸县,株洲市,430200,27.432495,26.768082,113.876182,113.164196
茶陵县,株洲市,430200,27.124706,26.503661,113.926857,113.355133
炎陵县,株洲市,430200,26.656462,26.039876,114.110128,113.582433
醴陵市,株洲市,430200,27.964779,27.374347,113.767669,113.170615
珠晖区,衡阳市,430400,27.027599,26.747499,112.737858,112.583332
雁峰区,衡阳市,430400,26.896794,26.774526,112.667477,112.546894
石鼓区,衡阳市,430400,27.016167,26.894869,112.66323,112.533576
蒸湘区,衡阳市,430400,26.957021,26.803213,112.605276,112.477858
南岳区,衡阳市,430400,27.331231,27.18943,112.781954,112.569249
衡阳县,衡阳市,430400,27.370185,26.872748,112.751887,112.001621
衡南县,衡阳市,430400,26.976301,26.543748,113.152947,112.116359
衡山县,衡阳市,430400,27.468306,26.974542,112.947086,112.461345
衡东县,衡阳市,430400,27.440232,26.781626,113.283946,112.743667
祁东县,衡阳市,430400,27.071903,26.46359,112.340475,111.543611
耒阳市,衡阳市,430400,26.705885,26.114208,113.23007,112.627637
常宁市,衡阳市,430400,26.601515,26.101051,112.693093,112.140251
岳阳楼区,岳阳市,430600,29.455373,29.236187,113.351449,113.071847
云溪区,岳阳市,430600,29.635214,29.391572,113.435117,113.153372
君山区,岳阳市,430600,29.640681,29.313097,113.141115,112.6296
岳阳县,岳阳市,430600,29.510374,28.951028,113.737148,112.772595
华容县,岳阳市,430600,29.80318,29.168286,113.030971,112.315726
湘阴县,岳阳市,430600,28.984073,28.500641,113.037897,112.510601
平江县,岳阳市,430600,29.105317,28.422183,114.157127,113.176867
汨罗市,岳阳市,430600,29.061031,28.460319,113.447126,112.872745
临湘市,岳阳市,430600,29.848931,29.196063,113.755014,113.307767
武陵区,常德市,430700,29.185581,28.887166,111.843665,111.588106
鼎城区,常德市,430700,29.390851,28.581214,112.183559,111.462379
安乡县,常德市,430700,29.769825,29.134496,112.303956,111.980501
汉寿县,常德市,430700,29.13491,28.614278,112.306387,111.705544
澧县,常德市,430700,29.954524,29.443763,112.076876,111.214588
临澧县,常德市,430700,29.767202,29.258012,111.843818,111.427479
桃源县,常德市,430700,29.406815,28.404902,111.616343,110.852091
石门县,常德市,430700,30.126363,29.270917,111.543373,110.491577
津市市,常德市,430700,29.730868,29.270017,112.045403,111.771273
吉首市,湘西土家族苗族自治州,433100,28.47301,28.134948,110.060129,109.458443
泸溪县,湘西土家族苗族自治州,433100,28.452686,27.907915,110.244357,109.659865
凤凰县,湘西土家族苗族自治州,433100,28.316812,27.720287,109.804028,109.298573
花垣县,湘西土家族苗族自治州,433100,28.622587,28.178808,109.648828,109.256869
保靖县,湘西土家族苗族自治州,433100,28.912084,28.400276,109.835008,109.180592
古丈县,湘西土家族苗族自治州,433100,28.76341,28.394419,110.274469,109.755442
永顺县,湘西土家族苗族自治州,433100,29.445256,28.70405,110.396331,109.591147
龙山县,湘西土家族苗族自治州,433100,29.634526,28.768429,109.828917,109.225936
荔湾区,广州市,440100,23.159613,23.041863,113.276887,113.17712
越秀区,广州市,440100,23.168854,23.105325,113.323058,113.240459
海珠区,广州市,440100,23.11372,23.043635,113.419714,113.242077
天河区,广州市,440100,23.245878,23.098121,113.448038,113.300979
白云区,广州市,440100,23.428664,23.138044,113.510165,113.149365
黄埔区,广州市,440100,23.412168,23.030213,113.607677,113.398067
番禺区,广州市,440100,23.080219,22.856961,113.5751,113.249463
花都区,广州市,440100,23.615999,23.231777,113.475969,112.958507
南沙区,广州市,440100,22.908406,22.51436,113.740462,113.296142
从化区,广州市,440100,23.932987,23.367777,114.059957,113.281547
增城区,广州市,440100,23.619882,23.084203,114.001529,113.54777
罗湖区,深圳市,440300,22.616449,22.526936,114.220011,114.066242
福田区,深圳市,440300,22.587531,22.499501,114.105177,113.990545
南山区,深圳市,440300,22.652478,22.396344,114.026421,113.786278
宝安区,深圳市,440300,22.861748,22.526416,113.98009,113.751453
龙岗区,深圳市,440300,22.813691,22.438581,114.628466,114.050093
盐田区,深圳市,440300,22.653829,22.540043,114.353515,114.202883
龙华区,深圳市,440300,22.771822,22.580561,114.113366,113.966593
坪山区,深圳市,440300,22.78132,22.622177,114.445342,114.267002
光明区,深圳市,440300,22.832806,22.68582,114.009204,113.857808
香洲区,珠海市,440400,22.443655,21.806335,114.325757,113.413314
斗门区,珠海市,440400,22.402759,22.081113,113.430558,113.084824
金湾区,珠海市,440400,22.197651,21.831696,113.482666,113.090762
澳门大学横琴校区(由澳门实施管辖),珠海市,440400,22.133954,22.117639,113.55244,113.545246
禅城区,佛山市,440600,23.062206,22.921949,113.168302,112.978944
南海区,佛山市,440600,23.314549,22.798367,113.263125,112.838127
顺德区,佛山市,440600,23.007371,22.673703,113.393428,113.009059
三水区,佛山市,440600,23.573451,22.955841,113.057281,112.764437
高明区,佛山市,440600,23.014761,22.642244,112.92295,112.390818
蓬江区,江门市,440700,22.807751,22.546851,113.170769,112.921388
江海区,江门市,440700,22.604239,22.483323,113.188723,113.069785
新会区,江门市,440700,22.574106,22.088517,113.262638,112.795544
台山市,江门市,440700,22.441426,21.458709,113.054206,112.303465
开平市,江门市,440700,22.666065,21.970279,112.81713,112.235488
鹤山市,江门市,440700,22.856291,22.466497,113.049525,112.476587
恩平市,江门市,440700,22.492287,21.913035,112.529102,112.003474
赤坎区,湛江市,440800,21.318261,21.231281,110.425387,110.324873
霞山区,湛江市,440800,21.245501,21.120024,110.44775,110.317447
坡头区,湛江市,440800,21.454729,21.083871,110.645383,110.387222
麻章区,湛江市,440800,21.32473,20.856742,110.647092,110.121686
遂溪县,湛江市,440800,21.507153,20.992942,110.420393,109.664118
徐闻县,湛江市,440800,20.711591,20.211718,110.59462,109.859857
廉江市,湛江市,440800,21.955396,21.402325,110.512951,109.743272
雷州市,湛江市,440800,21.179345,20.422748,110.407748,109.654936
吴川市,湛江市,440800,21.648416,21.227383,110.977023,110.482701
惠城区,惠州市,441300,23.413541,22.914483,114.793277,114.124038
惠阳区,惠州市,441300,23.13507,22.400371,114.707131,114.228938
博罗县,惠州市,441300,23.707103,23.047529,114.699285,113.844255
惠东县,惠州市,441300,23.385633,22.501917,115.426531,114.558509
龙门县,惠州市,441300,23.960195,23.332776,114.422125,113.813769
清城区,清远市,441800,23.88782,23.447571,113.378357,112.887716
清新区,清远市,441800,24.315719,23.545143,113.111591,112.568173
佛冈县,清远市,441800,24.116357,23.662666,113.800248,113.299202
阳山县,清远市,441800,24.927389,23.964906,113.022207,112.372307
连山壮族瑶族自治县,清远市,441800,24.849338,24.184849,112.27034,111.927434
连南瑶族自治县,清远市,441800,24.931056,24.302651,112.488983,112.055375
英德市,清远市,441800,24.54958,23.843139,113.931134,112.760463
连州市,清远市,441800,25.191722,24.612263,112.786708,112.119864
东莞市,东莞市,441900,23.14205,22.65421,114.260312,113.521542
中山市,中山市,442000,22.772602,22.201038,113.692042,113.157014
兴宁区,南宁市,450100,23.106576,22.813009,108.780238,108.312616
青秀区,南宁市,450100,22.997087,22.658429,108.843852,108.316883
江南区,南宁市,450100,22.860917,22.333706,108.346418,107.984254
西乡塘区,南宁市,450100,23.104372,22.756934,108.3584,107.764158
良庆区,南宁市,450100,22.783541,22.204184,108.569352,108.132879
邕宁区,南宁市,450100,22.809954,22.412165,108.861397,108.417736
武鸣区,南宁市,450100,23.544786,22.906492,108.618702,107.821037
隆安县,南宁市,450100,23.350098,22.844356,108.085024,107.329323
马山县,南宁市,450100,24.032943,23.399371,108.504159,107.7163
上林县,南宁市,450100,23.798527,23.196068,108.869466,108.381523
宾阳县,南宁市,450100,23.446369,22.90297,109.260137,108.537924
横州市,南宁市,450100,23.132179,22.484341,109.621646,108.797429
城中区,柳州市,450200,24.429401,24.307285,109.522312,109.400252
鱼峰区,柳州市,450200,24.570124,24.062809,109.749142,109.403652
柳南区,柳州市,450200,24.511014,24.242959,109.41443,109.003066
柳北区,柳州市,450200,24.579933,24.317735,109.512338,109.277508
柳江区,柳州市,450200,24.40997,23.907141,109.552539,108.916545
柳城县,柳州市,450200,24.830484,24.4258,109.608418,108.838057
鹿寨县,柳州市,450200,24.850316,24.211758,110.177824,109.476459
融安县,柳州市,450200,25.572857,24.74856,109.782143,109.223039
融水苗族自治县,柳州市,450200,25.730571,24.816293,109.476421,108.587687
三江侗族自治县,柳州市,450200,26.047313,25.361339,109.815629,108.895069
秀峰区,桂林市,450300,25.340191,25.225184,110.305099,110.222655
叠彩区,桂林市,450300,25.359069,25.2807,110.388017,110.275891
象山区,桂林市,450300,25.275114,25.128412,110.328939,110.228636
七星区,桂林市,450300,25.305723,25.210052,110.403306,110.292613
雁山区,桂林市,450300,25.233384,24.994665,110.489008,110.254406
临桂区,桂林市,450300,25.683789,24.830163,110.344775,109.762372
阳朔县,桂林市,450300,25.05778,24.633583,110.683314,110.22668
灵川县,桂林市,450300,25.786126,25.023141,110.785398,110.095684
全州县,桂林市,450300,26.385566,25.491767,111.492074,110.639397
兴安县,桂林市,450300,25.909924,25.305468,110.933835,110.239296
永福县,桂林市,450300,25.439294,24.645375,110.243077,109.617685
灌阳县,桂林市,450300,25.756841,25.173578,111.343309,110.721561
龙胜各族自治县,桂林市,450300,26.1955,25.487317,110.359659,109.720346
资源县,桂林市,450300,26.33393,25.764074,110.925021,110.281199
平乐县,桂林市,450300,24.886895,24.25883,111.045023,110.559708
恭城瑶族自治县,桂林市,450300,25.285453,24.614705,111.171,110.610568
荔浦市,桂林市,450300,24.76397,24.295654,110.696967,110.115708
海城区,北海市,450500,21.601586,20.898448,109.222824,109.041222
银海区,北海市,450500,21.686401,21.385942,109.400959,109.038099
铁山港区,北海市,450500,21.673984,21.435712,109.607487,109.330121
合浦县,北海市,450500,21.919038,21.454934,109.788923,108.850295
港口区,防城港市,450600,21.746366,21.533102,108.597035,108.328919
防城区,防城港市,450600,21.99441,21.489298,108.529268,107.481501
上思县,防城港市,450600,22.372281,21.724716,108.280838,107.542591
东兴市,防城港市,450600,21.721837,21.505017,108.224674,107.881779
秀英区,海口市,460100,20.077721,19.679086,110.339998,110.106537
龙华区,海口市,460100,20.059667,19.715529,110.4175,110.25291
琼山区,海口市,460100,20.017476,19.523873,110.672818,110.33361
美兰区,海口市,460100,20.115478,19.751328,110.713607,110.293254
海棠区,三亚市,460200,18.527422,18.238907,109.810949,109.65039
吉阳区,三亚市,460200,18.401444,18.142592,109.761412,109.454922
天涯区,三亚市,460200,18.623386,18.191988,109.539066,109.184596
崖州区,三亚市,460200,18.465895,18.260163,109.273812,108.932391
澄迈县,澄迈县,469023,20.026789,19.372983,110.262595,109.724977
陵水黎族自治县,陵水黎族自治县,469028,18.80935,18.34756,110.213961,109.755697
万州区,重庆城区,500000,31.002884,30.388588,108.911781,107.876131
涪陵区,重庆城区,500000,30.001426,29.359754,107.719636,106.94597
渝中区,重庆城区,500000,29.571262,29.527931,106.590613,106.482002
大渡口区,重庆城区,500000,29.498133,29.340763,106.535044,106.392715
江北区,重庆城区,500000,29.678595,29.552174,106.893649,106.451021
沙坪坝区,重庆城区,500000,29.750402,29.492193,106.494484,106.251059
九龙坡区,重庆城区,500000,29.559755,29.254554,106.552113,106.252213
南岸区,重庆城区,500000,29.61766,29.457728,106.80117,106.532151
北碚区,重庆城区,500000,30.085578,29.65059,106.688227,106.305688
綦江区,重庆城区,500000,29.18812,28.450487,107.058681,106.383862
大足区,重庆城区,500000,29.861028,29.370947,106.036846,105.472109
渝北区,重庆城区,500000,30.124127,29.572792,106.984884,106.450165
巴南区,重庆城区,500000,29.769966,29.126544,107.002209,106.435523
黔江区,重庆城区,500000,29.867323,29.071532,108.954551,108.487085
长寿区,重庆城区,500000,30.223822,29.712619,107.46029,106.855376
江津区,重庆城区,500000,29.4516,28.52436,106.608766,105.824149
合川区,重庆城区,500000,30.376904,29.844418,106.677593,105.967488
永川区,重庆城区,500000,29.570435,28.935418,106.089141,105.629889
南川区,重庆城区,500000,29.49702,28.761863,107.441414,106.891704
璧山区,重庆城区,500000,29.884869,29.278877,106.372895,106.04344
铜梁区,重庆城区,500000,30.093935,29.520474,106.281651,105.776698
潼南区,重庆城区,500000,30.437504,29.787798,106.020202,105.535922
荣昌区,重庆城区,500000,29.688368,29.251499,105.740994,105.28976
开州区,重庆城区,500000,31.688817,30.823951,108.898204,107.936307
梁平区,重庆城区,500000,30.88831,30.420406,108.086951,107.40527
武隆区,重庆城区,500000,29.668102,29.034221,108.086412,107.22645
锦江区,成都市,510100,30.670089,30.546449,104.171476,104.059962
青羊区,成都市,510100,30.723817,30.647005,104.08962,103.896225
金牛区,成都市,510100,30.807154,30.663081,104.139946,103.953738
武侯区,成都市,510100,30.664293,30.5291,104.094234,103.947882
成华区,成都市,510100,30.749323,30.616567,104.236501,104.069687
龙泉驿区,成都市,510100,30.720746,30.463976,104.454646,104.140329
青白江区,成都市,510100,30.913182,30.657992,104.493982,104.160404
新都区,成都市,510100,30.965096,30.676304,104.32968,103.903115
温江区,成都市,510100,30.884383,30.614036,103.945905,103.687739
双流区,成都市,510100,30.666683,30.227073,104.269491,103.792392
郫都区,成都市,510100,30.959906,30.718505,104.049279,103.715829
新津区,成都市,510100,30.526539,30.328073,103.934399,103.704502
金堂县,成都市,510100,30.950861,30.483831,104.892795,104.350681
大邑县,成都市,510100,30.814287,30.426729,103.764812,102.992886
蒲江县,成都市,510100,30.338799,30.094297,103.69312,103.308604
都江堰市,成都市,510100,31.366614,30.748774,103.785164,103.431311
彭州市,成都市,510100,31.435334,30.911378,104.169948,103.679068
邛崃市,成都市,510100,30.553464,30.205991,103.768312,103.061421
崇州市,成都市,510100,30.879641,30.498776,103.821658,103.120091
简阳市,成都市,510100,30.643672,30.089534,104.897532,104.191676
东区,攀枝花市,510400,26.680291,26.516601,101.825857,101.661041
西区,攀枝花市,510400,26.673219,26.533587,101.663024,101.45572
仁和区,攀枝花市,510400,26.78068,26.082396,101.93907,101.39493
米易县,攀枝花市,510400,27.267104,26.634091,102.247366,101.698143
盐边县,攀枝花市,510400,27.342906,26.419529,102.053071,101.136471
旌阳区,德阳市,510600,31.353447,31.016534,104.586654,104.250779
罗江区,德阳市,510600,31.442598,31.198987,104.711513,104.3245
中江县,德阳市,510600,31.281313,30.524985,105.175253,104.44553
广汉市,德阳市,510600,31.14836,30.891724,104.500254,104.115928
什邡市,德阳市,510600,31.541011,31.024992,104.275989,103.795433
绵竹市,德阳市,510600,31.698442,31.149796,104.345797,103.907427
涪城区,绵阳市,510700,31.609729,31.26688,104.846361,104.474014
游仙区,绵阳市,510700,31.720654,31.344416,105.154976,104.703006
安州区,绵阳市,510700,31.789792,31.369757,104.638013,104.094034
三台县,绵阳市,510700,31.44228,30.706221,105.301476,104.713936
盐亭县,绵阳市,510700,31.485788,30.972583,105.726228,105.20565
梓潼县,绵阳市,510700,31.910749,31.430323,105.462759,104.956883
北川羌族自治县,绵阳市,510700,32.216726,31.557914,104.724347,103.748762
平武县,绵阳市,510700,33.041989,31.991226,105.000023,103.844875
江油市,绵阳市,510700,32.320596,31.538911,105.288909,104.51402
利州区,广元市,510800,32.677681,32.283001,106.175853,105.376976
昭化区,广元市,510800,32.38817,31.894119,106.128491,105.551352
朝天区,广元市,510800,32.865087,32.478328,106.301481,105.627607
旺苍县,广元市,510800,32.688619,31.976816,106.776168,105.978635
青川县,广元市,510800,32.933195,32.138817,105.634956,104.616247
剑阁县,广元市,510800,32.349657,31.526957,105.826141,105.173439
苍溪县,广元市,510800,32.157552,31.614763,106.471319,105.729519
船山区,遂宁市,510900,30.655745,30.318651,105.770107,105.392118
安居区,遂宁市,510900,30.584096,30.173452,105.735817,105.073831
蓬溪县,遂宁市,510900,30.936009,30.368931,106.001273,105.431444
大英县,遂宁市,510900,30.731484,30.426624,105.492748,105.05934
射洪市,遂宁市,510900,31.160904,30.633116,105.660584,105.174275
顺庆区,南充市,511300,31.108947,30.763724,106.283192,105.951131
高坪区,南充市,511300,30.972255,30.568,106.487555,106.051179
嘉陵区,南充市,511300,30.924212,30.458013,106.141349,105.730118
南部县,南充市,511300,31.614455,31.068145,106.385047,105.44075
营山县,南充市,511300,31.403572,30.906226,106.964968,106.429372
蓬安县,南充市,511300,31.276274,30.732466,106.689326,106.172802
仪陇县,南充市,511300,31.662264,31.190316,106.883226,106.197722
西充县,南充市,511300,31.257236,30.87274,106.083361,105.613547
阆中市,南充市,511300,31.848833,31.362383,106.424545,105.685727
翠屏区,宜宾市,511500,29.207291,28.55446,104.915238,104.41392
南溪区,宜宾市,511500,29.060711,28.694343,105.095106,104.735726
叙州区,宜宾市,511500,29.265605,28.306409,104.754303,104.025037
江安县,宜宾市,511500,28.945289,28.367718,105.240524,104.959141
长宁县,宜宾市,511500,28.724452,28.245071,105.07645,104.72721
高县,宜宾市,511500,28.736587,28.188453,104.820069,104.358693
珙县,宜宾市,511500,28.520352,27.898157,105.042435,104.617717
筠连县,宜宾市,511500,28.232118,27.840579,104.792751,104.298099
兴文县,宜宾市,511500,28.453286,28.065618,105.358462,104.875289
屏山县,宜宾市,511500,28.899557,28.470509,104.393746,103.61289
通川区,达州市,511700,31.554952,31.114811,107.63677,107.187062
达川区,达州市,511700,31.430055,30.817792,107.835354,106.994797
宣汉县,达州市,511700,31.816066,31.107402,108.546712,107.379771
开江县,达州市,511700,31.255609,30.792596,108.089907,107.701728
大竹县,达州市,511700,31.005818,30.321956,107.544083,106.974542
渠县,达州市,511700,31.263366,30.635254,107.267109,106.666102
万源市,达州市,511700,32.338246,31.641286,108.51451,107.488789
雨城区,雅安市,511800,30.239116,29.667431,103.2365,102.856997
名山区,雅安市,511800,30.263557,29.965793,103.395135,103.042702
荥经县,雅安市,511800,29.940445,29.47025,102.941954,102.323364
汉源县,雅安市,511800,29.720119,29.091868,103.003905,102.277253
石棉县,雅安市,511800,29.533455,28.845463,102.564497,101.93598
天全县,雅安市,511800,30.347717,29.819451,102.916441,102.268156
芦山县,雅安市,511800,30.778327,30.01718,103.185886,102.851729
宝兴县,雅安市,511800,30.936781,30.153547,103.035127,102.416631
巴州区,巴中市,511900,32.05883,31.503149,107.121147,106.524289
恩阳区,巴中市,511900,31.954614,31.506684,106.812838,106.363495
通江县,巴中市,511900,32.540282,31.653139,107.763942,106.988098
南江县,巴中市,511900,32.739379,31.865767,107.127097,106.444699
平昌县,巴中市,511900,31.87014,31.247175,107.57581,106.838516
西昌市,凉山彝族自治州,513400,28.177542,27.541485,102.509167,101.7696
会理市,凉山彝族自治州,513400,27.189492,26.045865,102.634809,101.831932
木里藏族自治县,凉山彝族自治州,513400,29.16919,27.673633,101.667541,100.061499
盐源县,凉山彝族自治州,513400,28.274677,27.101764,102.053823,100.702745
德昌县,凉山彝族自治州,513400,27.578801,27.065521,102.470593,101.896732
会东县,凉山彝族自治州,513400,26.923652,26.205392,103.057106,102.344837
宁南县,凉山彝族自治州,513400,27.305669,26.83382,102.919626,102.467254
普格县,凉山彝族自治州,513400,27.837471,27.214716,102.767405,102.346661
布拖县,凉山彝族自治州,513400,27.924751,27.261943,103.07302,102.714218
金阳县,凉山彝族自治州,513400,27.957157,27.367379,103.509484,102.949749
昭觉县,凉山彝族自治州,513400,28.347225,27.755492,103.328558,102.453541
喜德县,凉山彝族自治州,513400,28.515755,27.913886,102.718658,102.193671
冕宁县,凉山彝族自治州,513400,29.036587,28.087962,102.429854,101.644256
越西县,凉山彝族自治州,513400,28.885824,28.313712,102.899561,102.341448
甘洛县,凉山彝族自治州,513400,29.303086,28.639209,103.031731,102.459771
美姑县,凉山彝族自治州,513400,28.830143,28.028032,103.336535,102.87254
雷波县,凉山彝族自治州,513400,28.614903,27.819909,103.877419,103.17161
南明区,贵阳市,520100,26.62629,26.447923,106.91692,106.660238
云岩区,贵阳市,520100,26.677142,26.546717,106.784049,106.593844
花溪区,贵阳市,520100,26.570344,26.183396,106.888284,106.454835
乌当区,贵阳市,520100,26.906343,26.567557,107.053283,106.720354
白云区,贵阳市,520100,26.820708,26.63355,106.82348,106.540992
观山湖区,贵阳市,520100,26.751873,26.525087,106.694052,106.445584
开阳县,贵阳市,520100,27.357802,26.778993,107.279236,106.744344
息烽县,贵阳市,520100,27.324262,26.967446,106.89407,106.469382
修文县,贵阳市,520100,27.192982,26.750365,106.885392,106.364662
清镇市,贵阳市,520100,26.932086,26.42297,106.546919,106.125092
五华区,昆明市,530100,25.41866,25.031284,102.748399,102.558452
盘龙区,昆明市,530100,25.460163,25.027551,103.037281,102.698009
官渡区,昆明市,530100,25.254264,24.881386,103.048801,102.655625
西山区,昆明市,530100,25.211216,24.733171,102.739788,102.351526
东川区,昆明市,530100,26.541846,25.781282,103.312004,102.796772
呈贡区,昆明市,530100,24.990152,24.697923,103.001118,102.705117
晋宁区,昆明市,530100,24.817792,24.3852,102.853206,102.196844
富民县,昆明市,530100,25.606072,25.130383,102.788349,102.34902
宜良县,昆明市,530100,25.281507,24.506964,103.49523,102.976578
石林彝族自治县,昆明市,530100,25.002747,24.499026,103.67025,103.164096
嵩明县,昆明市,530100,25.451099,25.08125,103.319964,102.903962
禄劝彝族苗族自治县,昆明市,530100,26.36357,25.408253,102.936404,102.23644
寻甸回族彝族自治县,昆明市,530100,26.017338,25.339899,103.55727,102.708563
安宁市,昆明市,530100,25.101262,24.514214,102.623295,102.171088
景洪市,西双版纳傣族自治州,532800,22.594469,21.449918,101.513484,100.431366
勐海县,西双版纳傣族自治州,532800,22.462114,21.463717,100.683008,99.944208
勐腊县,西双版纳傣族自治州,532800,22.404733,21.14177,101.835428,101.094104
新城区,西安市,610100,34.29956,34.234673,109.030934,108.947172
碑林区,西安市,610100,34.267906,34.229424,109.006381,108.909358
莲湖区,西安市,610100,34.296517,34.23737,108.953477,108.853809
灞桥区,西安市,610100,34.453833,34.167696,109.277381,108.995789
未央区,西安市,610100,34.439944,34.246514,109.044287,108.792412
雁塔区,西安市,610100,34.254711,34.164127,109.056383,108.808976
阎良区,西安市,610100,34.743103,34.586693,109.431019,109.155484
临潼区,西安市,610100,34.656439,34.276774,109.465294,109.098751
长安区,西安市,610100,34.296188,33.791142,109.231516,108.641996
高陵区,西安市,610100,34.593637,34.421767,109.176762,108.955176
鄠邑区,西安市,610100,34.262524,33.763046,108.773646,108.370591
蓝田县,西安市,610100,34.33538,33.838709,109.822432,109.130424
周至县,西安市,610100,34.231184,33.693877,108.517663,107.663753
渭滨区,宝鸡市,610300,34.480762,34.110123,107.328193,106.896261
金台区,宝鸡市,610300,34.530121,34.348354,107.293101,106.895868
陈仓区,宝鸡市,610300,34.748098,34.125914,107.588333,106.313336
凤翔区,宝鸡市,610300,34.75491,34.34382,107.649138,107.181223
岐山县,宝鸡市,610300,34.613631,34.129692,107.881275,107.532823
扶风县,宝鸡市,610300,34.631236,34.2138,108.053089,107.755561
眉县,宝鸡市,610300,34.323361,33.975157,108.035091,107.648145
陇县,宝鸡市,610300,35.105585,34.584036,107.137889,106.441365
千阳县,宝鸡市,610300,34.946384,34.561052,107.377569,106.947559
麟游县,宝鸡市,610300,34.974704,34.556322,108.032146,107.325033
凤县,宝鸡市,610300,34.303121,33.57935,107.124017,106.41049
太白县,宝鸡市,610300,34.16934,33.648454,107.783412,107.059297
秦都区,咸阳市,610400,34.488134,34.235301,108.811631,108.567381
杨陵区,咸阳市,610400,34.333771,34.221447,108.138687,107.945976
渭城区,咸阳市,610400,34.488031,34.327945,108.961003,108.673031
三原县,咸阳市,610400,34.834891,34.567376,109.177963,108.779236
泾阳县,咸阳市,610400,34.736792,34.442809,108.976348,108.500116
乾县,咸阳市,610400,34.752163,34.325552,108.406132,108.010927
礼泉县,咸阳市,610400,34.835901,34.347423,108.69803,108.299536
永寿县,咸阳市,610400,34.961804,34.479105,108.357457,107.949389
长武县,咸阳市,610400,35.311932,34.993416,107.971149,107.651842
旬邑县,咸阳市,610400,35.544246,34.948698,108.873905,108.128227
淳化县,咸阳市,610400,35.04356,34.715488,108.825057,108.314809
武功县,咸阳市,610400,34.441194,34.198381,108.329244,108.015527
兴平市,咸阳市,610400,34.446435,34.194981,108.62566,108.301648
彬州市,咸阳市,610400,35.287252,34.841325,108.356387,107.818331
汉台区,汉中市,610700,33.365254,33.025174,107.177819,106.861812
南郑区,汉中市,610700,33.126486,32.403273,107.377915,106.507658
城固县,汉中市,610700,33.661039,32.748926,107.500647,107.043196
洋县,汉中市,610700,33.71447,33.03365,108.04964,107.193313
西乡县,汉中市,610700,33.229715,32.530289,108.240585,107.267562
勉县,汉中市,610700,33.634818,32.887726,106.965863,106.347792
宁强县,汉中市,610700,33.21119,32.616648,106.584187,105.491949
略阳县,汉中市,610700,33.619111,33.107268,106.518787,105.708982
镇巴县,汉中市,610700,32.841671,32.146037,108.283384,107.429171
留坝县,汉中市,610700,33.877431,33.28023,107.342043,106.642277
佛坪县,汉中市,610700,33.749831,33.255972,108.161468,107.673743
城关区,兰州市,620100,36.223536,35.961868,103.985448,103.767349
七里河区,兰州市,620100,36.10333,35.840681,103.911231,103.61684
西固区,兰州市,620100,36.231199,35.968503,103.691136,103.337112
安宁区,兰州市,620100,36.353873,36.077998,103.861136,103.552115
红古区,兰州市,620100,36.470104,36.133609,103.372835,102.829559
永登县,兰州市,620100,36.999155,36.198297,103.696039,102.601275
皋兰县,兰州市,620100,36.874234,36.087263,104.231489,103.452184
榆中县,兰州市,620100,36.44319,35.571135,104.577268,103.835549
兴庆区,银川市,640100,38.655726,38.293973,106.662522,106.252958
西夏区,银川市,640100,38.715981,38.312713,106.242526,105.841138
金凤区,银川市,640100,38.642012,38.282879,106.300556,106.055149
永宁县,银川市,640100,38.484877,38.131018,106.383408,105.821022
贺兰县,银川市,640100,38.875637,38.448782,106.596277,105.885462
灵武市,银川市,640100,38.356825,37.636747,106.885679,106.207106
