district_name,city_name,city_id,max_lat,min_lat,max_lng,min_lng
东城区,北京城区,110000,39.974036,39.858625,116.450898,116.377134
西城区,北京城区,110000,39.973066,39.868696,116.399464,116.320757
朝阳区,北京城区,110000,40.107933,39.809768,116.645273,116.350882
丰台区,北京城区,110000,39.89682,39.761587,116.467794,116.054644
石景山区,北京城区,110000,39.993437,39.87413,116.259716,116.111948
海淀区,北京城区,110000,40.160985,39.886829,116.395093,116.048838
门头沟区,北京城区,110000,40.178714,39.812539,116.175424,115.423411
房山区,北京城区,110000,39.925238,39.507049,116.254421,115.425204
通州区,北京城区,110000,40.031749,39.593091,116.953839,116.520073
顺义区,北京城区,110000,40.311224,40.008269,116.986284,116.464754
昌平区,北京城区,110000,40.392859,40.036766,116.506009,115.844297
大兴区,北京城区,110000,39.831896,39.442758,116.727059,116.215488
怀柔区,北京城区,110000,41.060816,40.233676,116.886972,116.283822
平谷区,北京城区,110000,40.377803,40.029635,117.407697,116.929456
密云区,北京城区,110000,40.80107,40.220124,117.514625,116.665768
延庆区,北京城区,110000,40.791826,40.265611,116.574086,115.736037
和平区,天津城区,120000,39.13709,39.100943,117.222506,117.179292
河东区,天津城区,120000,39.162999,36.571593,117.310673,113.738436
河西区,天津城区,120000,39.117484,39.033071,117.29245,117.179066
南开区,天津城区,120000,39.152294,39.06115,117.194928,117.110786
河北区,天津城区,120000,39.193053,39.130451,117.260628,117.167553
红桥区,天津城区,120000,39.191901,39.14118,117.194443,117.099781
东丽区,天津城区,120000,39.248509,38.99512,117.568799,117.233479
西青区,天津城区,120000,39.177159,38.82366,117.344553,116.88148
津南区,天津城区,120000,39.077425,38.843525,117.560219,117.245468
北辰区,天津城区,120000,39.357506,39.150577,117.407114,116.938933
武清区,天津城区,120000,39.706825,39.119354,117.340602,116.785094
宝坻区,天津城区,120000,39.83499,39.346524,117.710241,117.146713
滨海新区,天津城区,120000,39.334192,38.555578,118.065611,117.134099
宁河区,天津城区,120000,39.601769,39.166213,117.933988,117.322776
静海区,天津城区,120000,39.072588,38.584863,117.258887,116.708028
蓟州区,天津城区,120000,40.253214,39.755409,117.797063,117.13583
长安区,石家庄市,130000,38.132405,38.035595,114.707377,114.480167
桥西区,石家庄市,130000,38.073279,37.972268,114.512256,114.376652
新华区,石家庄市,130000,38.168145,38.043407,114.502489,114.374272
井陉矿区,石家庄市,130000,38.138606,38.003587,114.111359,113.987862
裕华区,石家庄市,130000,38.058403,37.967624,114.682061,114.490083
藁城区,石家庄市,130000,38.313217,37.850722,114.987399,114.652546
鹿泉区,石家庄市,130000,38.275029,37.886518,114.515972,114.188303
栾城区,石家庄市,130000,37.997773,37.795454,114.802773,114.4885
井陉县,石家庄市,130000,38.217779,37.690869,114.303865,113.810063
正定县,石家庄市,130000,38.357865,38.102839,114.728899,114.392276
行唐县,石家庄市,130000,38.706574,38.348768,114.694277,114.166753
灵寿县,石家庄市,130000,38.758387,38.243606,114.484984,113.827684
高邑县,石家庄市,130000,37.696748,37.553011,114.725981,114.468932
深泽县,石家庄市,130000,38.290944,38.116161,115.368529,115.087918
赞皇县,石家庄市,130000,37.770317,37.434872,114.52336,114.022694
无极县,石家庄市,130000,38.293321,38.047519,115.129644,114.786253
平山县,石家庄市,130000,38.763298,38.162854,114.284122,113.525437
元氏县,石家庄市,130000,37.925635,37.667629,114.648693,114.178394
赵县,石家庄市,130000,37.888084,37.624376,115.085288,114.608977
辛集市,石家庄市,130000,38.135009,37.629573,115.483611,115.120379
晋州市,石家庄市,130000,38.170902,37.792311,115.221382,114.964782
新乐市,石家庄市,130000,38.497642,38.25751,114.943017,114.506171
路南区,唐山市,130000,39.633913,39.486758,118.279782,118.121836
路北区,唐山市,130000,39.714324,39.58239,118.244026,117.983762
古冶区,唐山市,130000,39.820285,39.587001,118.579615,118.331063
开平区,唐山市,130000,39.805153,39.565221,118.372859,118.167146
丰南区,唐山市,130000,39.660008,39.165832,118.454747,117.520868
丰润区,唐山市,130000,40.066611,39.561234,118.360595,117.763786
曹妃甸区,唐山市,130000,39.450024,38.904447,118.723119,118.139629
滦南县,唐山市,130000,39.663048,38.980872,118.861347,118.144655
乐亭县,唐山市,130000,39.574781,39.00827,119.319506,118.677096
迁西县,唐山市,130000,40.464809,39.956131,118.618572,118.121833
玉田县,唐山市,130000,39.998926,39.530087,117.947274,117.503464
遵化市,唐山市,130000,40.355538,39.92496,118.234734,117.573174
迁安市,唐山市,130000,40.253419,39.849496,118.925443,118.447253
滦州市,唐山市,130000,39.974532,39.579173,118.839123,118.241984
海港区,秦皇岛市,130000,40.320987,39.860926,119.76265,119.413168
山海关区,秦皇岛市,130000,40.112271,39.940978,119.872492,119.621905
北戴河区,秦皇岛市,130000,39.916596,39.778052,119.541336,119.320474
抚宁区,秦皇岛市,130000,40.178844,39.721742,119.489303,119.075113
青龙满族自治县,秦皇岛市,130000,40.614602,40.080852,119.612726,118.568376
昌黎县,秦皇岛市,130000,39.804395,39.42287,119.358103,118.774262
卢龙县,秦皇岛市,130000,40.160984,39.711124,119.151673,118.793831
邯山区,邯郸市,130000,36.614969,36.370336,114.649374,114.317158
丛台区,邯郸市,130000,36.72571,36.576454,114.814376,114.320285
复兴区,邯郸市,130000,36.675674,36.428217,114.479927,114.270386
峰峰矿区,邯郸市,130000,36.574461,36.336308,114.316465,114.053657
肥乡区,邯郸市,130000,36.67433,36.479595,115.0375,114.623141
永年区,邯郸市,130000,36.942964,36.662721,114.879121,114.339104
临漳县,邯郸市,130000,36.409126,36.118463,114.77658,114.344797
成安县,邯郸市,130000,36.506694,36.291591,114.892167,114.487596
大名县,邯郸市,130000,36.505619,36.086786,115.483553,114.976283
涉县,邯郸市,130000,36.887348,36.31437,114.002692,113.465369
磁县,邯郸市,130000,36.511278,36.242224,114.439913,113.897866
邱县,邯郸市,130000,36.95903,36.632335,115.332579,115.056606
鸡泽县,邯郸市,130000,36.970263,36.743078,114.976777,114.716643
广平县,邯郸市,130000,36.620274,36.370777,115.183811,114.827983
馆陶县,邯郸市,130000,36.786786,36.452599,115.478537,115.119127
魏县,邯郸市,130000,36.439543,36.048206,115.124977,114.741757
曲周县,邯郸市,130000,36.964557,36.577408,115.220052,114.846075
武安市,邯郸市,130000,37.015065,36.485016,114.380802,113.754374
襄都区,邢台市,130000,37.190582,36.901929,114.644706,114.45496
信都区,邢台市,130000,37.362904,36.942424,114.511891,113.758151
任泽区,邢台市,130000,37.286853,37.070829,114.92811,114.574166
南和区,邢台市,130000,37.106033,36.913573,114.908117,114.590928
临城县,邢台市,130000,37.578539,37.347616,114.63219,114.069193
内丘县,邢台市,130000,37.443466,37.170836,114.650501,113.961809
柏乡县,邢台市,130000,37.630678,37.405945,114.787215,114.602482
隆尧县,邢台市,130000,37.552636,37.201344,115.020565,114.562556
宁晋县,邢台市,130000,37.812803,37.403436,115.262668,114.764317
巨鹿县,邢台市,130000,37.426438,37.12477,115.227962,114.842563
新河县,邢台市,130000,37.577653,37.391952,115.455309,115.088264
广宗县,邢台市,130000,37.298126,36.850338,115.301773,115.104323
平乡县,邢台市,130000,37.162954,36.946666,115.135162,114.868258
威县,邢台市,130000,37.297838,36.86257,115.587397,115.202457
清河县,邢台市,130000,37.184292,36.924734,115.853918,115.51322
临西县,邢台市,130000,36.944379,36.752144,115.768723,115.301966
南宫市,邢台市,130000,37.448169,37.090394,115.765359,115.14423
沙河市,邢台市,130000,37.048664,36.827944,114.671071,113.837243
竞秀区,保定市,130000,38.956739,38.808872,115.491674,115.336748
莲池区,保定市,130000,38.957106,38.78304,115.603728,115.380354
满城区,保定市,130000,39.126794,38.727786,115.489025,114.95462
清苑区,保定市,130000,38.925965,38.55076,115.763277,115.233927
徐水区,保定市,130000,39.165734,38.878956,115.783577,115.325212
涞水县,保定市,130000,39.952566,39.295323,115.818691,114.999739
阜平县,保定市,130000,39.137344,38.657791,114.538895,113.767545
定兴县,保定市,130000,39.331257,39.09891,115.974894,115.512658
唐县,保定市,130000,39.154375,38.618569,115.069079,114.472599
高阳县,保定市,130000,38.782439,38.510111,115.974988,115.621331
容城县,保定市,130000,39.138691,38.952602,116.075344,115.75454
涞源县,保定市,130000,39.693398,39.028154,115.08849,114.349017
望都县,保定市,130000,38.806664,38.509388,115.309036,115.02957
安新县,保定市,130000,39.036606,38.727196,116.125602,115.641442
易县,保定市,130000,39.599103,39.046738,115.642729,114.852986
曲阳县,保定市,130000,38.954893,38.473447,114.888657,114.413653
蠡县,保定市,130000,38.672275,38.340607,115.848504,115.475848
顺平县,保定市,130000,39.120149,38.742253,115.288936,114.840664
博野县,保定市,130000,38.577338,38.315859,115.651597,115.314506
雄县,保定市,130000,39.164298,38.920875,116.335359,116.029084
涿州市,保定市,130000,39.600833,39.352205,116.248349,115.743697
定州市,保定市,130000,38.67241,38.235197,115.264257,114.811515
安国市,保定市,130000,38.554894,38.23474,115.502319,115.179976
高碑店市,保定市,130000,39.387473,39.097346,116.221824,115.79018
桥东区,张家口市,130000,40.847389,40.663841,115.264204,114.849057
桥西区,张家口市,130000,40.96574,40.644642,114.973317,114.765956
宣化区,张家口市,130000,40.810339,40.154835,115.527012,114.701736
下花园区,张家口市,130000,40.631878,40.438527,115.496626,115.131642
万全区,张家口市,130000,41.020608,40.675849,114.841732,114.352862
崇礼区,张家口市,130000,41.294266,40.777351,115.572896,114.7966
张北县,张家口市,130000,41.576113,40.951946,115.460414,114.181377
康保县,张家口市,130000,42.149634,41.428073,114.939182,114.199489
沽源县,张家口市,130000,41.945133,41.234336,116.083978,114.850201
尚义县,张家口市,130000,41.538212,40.730761,114.451233,113.819304
蔚县,张家口市,130000,40.198955,39.55574,115.070484,114.198479
阳原县,张家口市,130000,40.378461,39.897619,114.813417,113.910621
怀安县,张家口市,130000,40.761104,40.343283,114.802336,114.139525
怀来县,张家口市,130000,40.587881,40.065471,115.968982,115.284608
涿鹿县,张家口市,130000,40.491974,39.672634,115.513205,114.928469
赤城县,张家口市,130000,41.38999,40.512756,116.465844,115.433879
双桥区,承德市,130000,41.138681,40.73567,118.129431,117.84603
双滦区,承德市,130000,41.204163,40.801068,117.900392,117.63581
鹰手营子矿区,承德市,130000,40.624803,40.475658,117.886548,117.582011
承德县,承德市,130000,41.47129,40.570263,118.563073,117.500597
兴隆县,承德市,130000,40.713472,40.192023,118.260849,117.208425
滦平县,承德市,130000,41.265451,40.657761,117.780521,116.67762
隆化县,承德市,130000,41.838376,41.145833,118.31646,116.798484
丰宁满族自治县,承德市,130000,42.009944,40.896002,117.399833,115.909991
宽城满族自治县,承德市,130000,40.75655,40.287549,119.18583,118.185278
围场满族蒙古族自治县,承德市,130000,42.619718,41.593187,118.340222,116.693766
平泉市,承德市,130000,41.374537,40.675493,119.249371,118.35815
新华区,沧州市,130000,38.367378,38.248382,116.960581,116.857245
运河区,沧州市,130000,38.414758,38.21554,116.89186,116.766679
沧县,沧州市,130000,38.54478,38.082424,117.153094,116.457851
青县,沧州市,130000,38.746691,38.385594,117.099037,116.589891
东光县,沧州市,130000,38.02843,37.735194,116.889933,116.465481
海兴县,沧州市,130000,38.28386,37.934208,117.848487,117.325026
盐山县,沧州市,130000,38.121735,37.836404,117.509745,117.002504
肃宁县,沧州市,130000,38.535618,38.274146,116.052421,115.705289
南皮县,沧州市,130000,38.184938,37.83237,117.045764,116.54773
吴桥县,沧州市,130000,37.791304,37.47335,116.705631,116.327858
献县,沧州市,130000,38.375345,38.059518,116.505427,115.829931
孟村回族自治县,沧州市,130000,38.241852,37.94386,117.352069,117.014853
泊头市,沧州市,130000,38.222812,37.910232,116.760217,116.04246
任丘市,沧州市,130000,38.948381,38.553393,116.435806,115.944029
黄骅市,沧州市,130000,38.643874,38.154614,117.958013,117.085117
河间市,沧州市,130000,38.675502,38.309261,116.643379,115.925229
安次区,廊坊市,130000,39.549315,39.142835,116.892761,116.596508
广阳区,廊坊市,130000,39.624704,39.452635,116.826202,116.401707
固安县,廊坊市,130000,39.517344,39.132183,116.481852,116.116676
永清县,廊坊市,130000,39.478938,39.129647,116.750578,116.378348
香河县,廊坊市,130000,39.858042,39.616979,117.2059,116.882759
大城县,廊坊市,130000,38.874714,38.470316,116.775063,116.36639
文安县,廊坊市,130000,39.059096,38.736334,116.759353,116.19876
大厂回族自治县,廊坊市,130000,39.983479,39.822998,117.071854,116.812298
霸州市,廊坊市,130000,39.220792,38.984127,116.926122,116.262826
三河市,廊坊市,130000,40.085011,39.808154,117.259987,116.757202
桃城区,衡水市,130000,37.837891,37.599379,115.84921,115.426113
冀州区,衡水市,130000,37.742019,37.31566,115.691932,115.172741
枣强县,衡水市,130000,37.65717,37.216976,115.977274,115.565642
武邑县,衡水市,130000,38.006138,37.62728,116.125647,115.753306
武强县,衡水市,130000,38.169023,37.921487,116.070604,115.769325
饶阳县,衡水市,130000,38.371919,38.089745,115.901181,115.559956
安平县,衡水市,130000,38.362844,38.082019,115.687886,115.323151
故城县,衡水市,130000,37.543502,37.05927,116.285543,115.756348
景县,衡水市,130000,37.87135,37.462372,116.474706,115.908623
阜城县,衡水市,130000,38.025408,37.765324,116.565249,116.053725
深州市,衡水市,130000,38.194992,37.71105,115.847978,115.344452
小店区,太原市,140000,37.851319,37.595752,112.694316,112.401751
迎泽区,太原市,140000,37.920519,37.804718,112.783992,112.536611
杏花岭区,太原市,140000,37.97768,37.861385,112.778493,112.537081
尖草坪区,太原市,140000,38.07505,37.880511,112.649915,112.352937
万柏林区,太原市,140000,37.981277,37.781115,112.54321,112.267749
晋源区,太原市,140000,37.82296,37.606981,112.54944,112.326689
清徐县,太原市,140000,37.781115,37.458858,112.628268,112.171971
阳曲县,太原市,140000,38.421313,37.937969,113.156613,112.205474
娄烦县,太原市,140000,38.229994,37.847823,112.052214,111.515924
古交市,太原市,140000,38.176008,37.669077,112.342814,111.734661
新荣区,大同市,140000,40.413391,40.12275,113.523812,112.873842
平城区,大同市,140000,40.175683,39.982295,113.403859,113.208438
云冈区,大同市,140000,40.174574,39.891563,113.396724,112.886367
云州区,大同市,140000,40.254794,39.719537,113.869972,113.32901
阳高县,大同市,140000,40.517985,39.831805,114.047371,113.486913
天镇县,大同市,140000,40.739941,40.056781,114.53066,113.910842
广灵县,大同市,140000,39.929745,39.592008,114.416992,113.850723
灵丘县,大同市,140000,39.655369,39.048278,114.568922,113.897867
浑源县,大同市,140000,39.874668,39.369976,113.976477,113.382989
左云县,大同市,140000,40.262574,39.740671,112.979166,112.578379
城区,阳泉市,140000,37.875107,37.833066,113.652762,113.56051
矿区,阳泉市,140000,37.913942,37.855243,113.570076,113.497521
郊区,阳泉市,140000,38.090612,37.767741,113.706025,113.326077
平定县,阳泉市,140000,38.110831,37.662684,114.046117,113.441142
盂县,阳泉市,140000,38.521979,37.947938,113.834204,112.91987
潞州区,长治市,140000,36.440841,36.123502,113.212546,112.993824
上党区,长治市,140000,36.169217,35.868479,113.201846,112.964667
屯留区,长治市,140000,36.507998,36.188423,113.048428,112.449239
潞城区,长治市,140000,36.488024,36.243234,113.435398,112.995445
襄垣县,长治市,140000,36.740204,36.39298,113.247338,112.704742
平顺县,长治市,140000,36.457934,35.952348,113.736403,113.197
黎城县,长治市,140000,36.880576,36.396729,113.594825,113.173616
壶关县,长治市,140000,36.219639,35.822511,113.661055,113.131383
长子县,长治市,140000,36.260892,35.922549,113.013702,112.490518
武乡县,长治市,140000,37.125221,36.657472,113.372965,112.445788
沁县,长治市,140000,36.972686,36.428522,112.901422,112.471769
沁源县,长治市,140000,37.017157,36.33962,112.545716,111.984774
城区,晋城市,140000,35.592942,35.425845,112.924431,112.752791
沁水县,晋城市,140000,36.062708,35.3881,112.786058,111.9414
阳城县,晋城市,140000,35.685154,35.211631,112.640713,112.022046
陵川县,晋城市,140000,35.897815,35.426683,113.625038,113.041042
泽州县,晋城市,140000,35.713779,35.187007,113.238594,112.549756
高平市,晋城市,140000,35.987139,35.649863,113.162854,112.704766
朔城区,朔州市,140000,39.456432,39.08522,112.775692,112.019688
平鲁区,朔州市,140000,39.978043,39.352849,112.690768,111.894702
山阴县,朔州市,140000,39.776796,39.173173,113.076505,112.431541
应县,朔州市,140000,39.733096,39.294489,113.577269,112.959638
右玉县,朔州市,140000,40.300055,39.692977,112.648338,112.116398
怀仁市,朔州市,140000,39.958283,39.612081,113.439607,112.771092
榆次区,晋中市,140000,37.881897,37.397601,113.111902,112.578509
太谷区,晋中市,140000,37.55884,37.212534,113.047495,112.47626
榆社县,晋中市,140000,37.399487,36.871893,113.214664,112.652537
左权县,晋中市,140000,37.276492,36.74434,113.794941,113.104345
和顺县,晋中市,140000,37.58422,37.063401,113.936607,113.067702
昔阳县,晋中市,140000,37.727853,37.330233,114.139712,113.335789
寿阳县,晋中市,140000,38.092872,37.539689,113.453825,112.765536
祁县,晋中市,140000,37.485495,37.079711,112.689433,112.220623
平遥县,晋中市,140000,37.341598,36.933867,112.55104,111.940549
灵石县,晋中市,140000,36.999051,36.650121,112.011688,111.412268
介休市,晋中市,140000,37.180647,36.839515,112.17637,111.735372
盐湖区,运城市,140000,35.371195,34.818534,111.187021,110.739439
临猗县,运城市,140000,35.30579,34.980287,110.92253,110.337662
万荣县,运城市,140000,35.528464,35.231733,111.000008,110.418871
闻喜县,运城市,140000,35.572171,35.165071,111.626098,110.998231
稷山县,运城市,140000,35.807851,35.381336,111.095565,110.819209
新绛县,运城市,140000,35.819725,35.454289,111.34792,111.035548
绛县,运城市,140000,35.655303,35.337802,111.908854,111.371165
垣曲县,运城市,140000,35.431474,34.987977,112.081519,111.513777
夏县,运城市,140000,35.317277,34.928812,111.681669,111.043576
平陆县,运城市,140000,35.016341,34.701698,111.63671,110.895138
芮城县,运城市,140000,34.841926,34.581934,110.968492,110.236613
永济市,运城市,140000,35.059986,34.670408,110.771334,110.229593
河津市,运城市,140000,35.78909,35.472284,110.843427,110.545523
忻府区,忻州市,140000,38.68349,38.206525,112.972207,112.266925
定襄县,忻州市,140000,38.663293,38.340259,113.294484,112.745563
五台县,忻州市,140000,39.081389,38.468009,113.857626,112.962238
代县,忻州市,140000,39.362768,38.846731,113.368777,112.724595
繁峙县,忻州市,140000,39.441261,38.962133,113.968182,113.157826
宁武县,忻州市,140000,39.142535,38.512544,112.633277,111.834958
静乐县,忻州市,140000,38.680913,38.132392,112.339176,111.723427
神池县,忻州市,140000,39.404916,38.929348,112.300731,111.718215
五寨县,忻州市,140000,39.253407,38.711734,112.024754,111.463431
岢岚县,忻州市,140000,38.977275,38.483886,111.883516,111.211483
河曲县,忻州市,140000,39.453033,38.902173,111.618963,111.119077
保德县,忻州市,140000,39.115284,38.658695,111.335629,110.944949
偏关县,忻州市,140000,39.663675,39.218124,112.012265,111.363536
原平市,忻州市,140000,39.153154,38.587161,113.092328,112.285714
尧都区,临汾市,140000,36.331534,35.899977,111.821597,111.088296
曲沃县,临汾市,140000,35.861405,35.554402,111.631942,111.377296
翼城县,临汾市,140000,35.864091,35.387895,112.053722,111.568084
襄汾县,临汾市,140000,36.054045,35.670724,111.685339,111.126944
洪洞县,临汾市,140000,36.54917,36.094882,111.896305,111.349885
古县,临汾市,140000,36.593138,36.039751,112.188788,111.819913
安泽县,临汾市,140000,36.502498,35.894993,112.574436,112.011507
浮山县,临汾市,140000,36.101089,35.816396,112.213624,111.651076
吉县,临汾市,140000,36.351583,35.888501,111.132394,110.447069
乡宁县,临汾市,140000,36.150064,35.689287,111.293146,110.510861
大宁县,临汾市,140000,36.609187,36.275543,111.021707,110.468624
隰县,临汾市,140000,36.931056,36.455851,111.272937,110.758456
永和县,临汾市,140000,36.936522,36.520969,110.838948,110.374672
蒲县,临汾市,140000,36.633345,36.198222,111.397782,110.865287
汾西县,临汾市,140000,36.804232,36.455271,111.677717,111.229285
侯马市,临汾市,140000,35.705138,35.534503,111.459068,111.265425
霍州市,临汾市,140000,36.718811,36.441974,112.05216,111.625026
离石区,吕梁市,140000,37.737284,37.342301,111.605146,110.944264
文水县,吕梁市,140000,37.585957,37.266473,112.330118,111.511829
交城县,吕梁市,140000,37.899365,37.466469,112.29459,111.413771
兴县,吕梁市,140000,38.730072,38.094913,111.477504,110.555887
临县,吕梁市,140000,38.235234,37.604992,111.306821,110.500369
柳林县,吕梁市,140000,37.633973,37.146402,111.104292,110.629696
石楼县,吕梁市,140000,37.268976,36.857489,111.104272,110.376818
岚县,吕梁市,140000,38.602359,38.08199,111.842348,111.368539
方山县,吕梁市,140000,38.17339,37.617899,111.580102,111.05873
中阳县,吕梁市,140000,37.484039,37.050384,111.493267,110.830224
交口县,吕梁市,140000,37.210112,36.73602,111.585088,111.067809
孝义市,吕梁市,140000,37.319359,36.941265,111.934284,111.366284
汾阳市,吕梁市,140000,37.484484,37.147252,112.014811,111.440583
新城区,呼和浩特市,150000,41.133446,40.812373,112.047465,111.599757
回民区,呼和浩特市,150000,40.949698,40.789329,111.675561,111.443046
玉泉区,呼和浩特市,150000,40.808896,40.632973,111.741099,111.508586
赛罕区,呼和浩特市,150000,40.969462,40.609352,112.188784,111.672476
土默特左旗,呼和浩特市,150000,40.930154,40.423155,111.811699,110.781551
托克托县,呼和浩特市,150000,40.596137,40.097612,111.545541,111.027981
和林格尔县,呼和浩特市,150000,40.691516,39.97546,112.311648,111.433866
清水河县,呼和浩特市,150000,40.182424,39.588911,112.116398,111.358084
武川县,呼和浩特市,150000,41.387432,40.785876,111.879318,110.517434
东河区,包头市,150000,40.653553,40.461924,110.444099,109.950532
昆都仑区,包头市,150000,40.813202,40.604928,109.873692,109.61222
青山区,包头市,150000,40.744388,40.618473,110.09346,109.839264
石拐区,包头市,150000,40.894599,40.588309,110.551529,110.02268
白云鄂博矿区,包头市,150000,41.936916,41.648068,110.058991,109.827595
九原区,包头市,150000,40.748581,40.482063,110.058245,109.399657
土默特右旗,包头市,150000,40.849434,40.244327,111.127491,110.239218
固阳县,包头市,150000,41.49977,40.724487,110.746903,109.619213
达尔罕茂明安联合旗,包头市,150000,42.738521,41.240089,111.443465,109.277392
海勃湾区,乌海市,150000,39.915113,39.501104,106.968424,106.74981
海南区,乌海市,150000,39.553987,39.036399,107.139314,106.739381
乌达区,乌海市,150000,39.633827,39.431445,106.786524,106.611372
红山区,赤峰市,150000,42.346365,42.032615,119.183623,118.844975
元宝山区,赤峰市,150000,42.425624,41.933948,119.508032,119.028064
松山区,赤峰市,150000,42.722553,42.03054,119.656054,117.792308
阿鲁科尔沁旗,赤峰市,150000,45.252308,43.370192,120.987609,119.067428
巴林左旗,赤峰市,150000,44.784512,43.609684,119.814623,118.738959
巴林右旗,赤峰市,150000,44.468407,43.216371,120.079014,118.198741
林西县,赤峰市,150000,44.25974,43.245748,118.581049,117.638152
克什克腾旗,赤峰市,150000,44.235208,42.387608,118.458646,116.356502
翁牛特旗,赤峰市,150000,43.436656,42.466935,120.785234,117.832624
喀喇沁旗,赤峰市,150000,42.23912,41.563918,119.341272,118.130674
宁城县,赤峰市,150000,41.882149,41.282313,119.419897,118.26962
敖汉旗,赤峰市,150000,43.029934,41.697066,120.892458,119.501244
科尔沁区,通辽市,150000,43.966633,43.362669,123.033577,121.681575
科尔沁左翼中旗,通辽市,150000,44.509706,43.545719,123.537215,121.165898
科尔沁左翼后旗,通辽市,150000,43.700931,42.670165,123.720878,121.59034
开鲁县,通辽市,150000,44.142029,43.311087,121.870484,120.422202
库伦旗,通辽市,150000,43.305018,42.36181,122.209762,121.134467
奈曼旗,通辽市,150000,43.539057,42.24252,121.606494,120.348414
扎鲁特旗,通辽市,150000,45.595707,43.839709,121.934363,119.248183
霍林郭勒市,通辽市,150000,45.655871,45.385597,119.756456,119.304326
东胜区,鄂尔多斯市,150000,39.97979,39.653734,110.389548,109.140944
康巴什区,鄂尔多斯市,150000,39.757007,39.514412,110.033246,109.608622
达拉特旗,鄂尔多斯市,150000,40.557422,39.808538,110.723072,108.989783
准格尔旗,鄂尔多斯市,150000,40.321621,39.266406,111.462966,110.115854
鄂托克前旗,鄂尔多斯市,150000,38.837239,37.621727,108.540627,106.482468
鄂托克旗,鄂尔多斯市,150000,40.19375,38.284982,108.902097,106.719493
杭锦旗,鄂尔多斯市,150000,40.874305,39.375272,109.275551,106.920696
乌审旗,鄂尔多斯市,150000,39.399156,37.652022,109.683777,108.29491
伊金霍洛旗,鄂尔多斯市,150000,39.802973,38.915457,110.438134,109.009407
海拉尔区,呼伦贝尔市,150000,49.458822,49.097886,120.580295,119.523238
扎赉诺尔区,呼伦贝尔市,150000,49.520271,49.315416,117.771437,117.490892
阿荣旗,呼伦贝尔市,150000,49.29417,47.950207,124.26388,122.052018
莫力达瓦达斡尔族自治旗,呼伦贝尔市,150000,49.90094,48.085561,125.277409,123.557723
鄂伦春自治旗,呼伦贝尔市,150000,51.661355,48.825812,126.075585,121.736939
鄂温克族自治旗,呼伦贝尔市,150000,49.294297,47.551013,121.168296,118.811849
陈巴尔虎旗,呼伦贝尔市,150000,50.210892,48.784953,121.057441,118.377774
新巴尔虎左旗,呼伦贝尔市,150000,49.783944,47.333783,120.225421,117.532289
新巴尔虎右旗,呼伦贝尔市,150000,49.855545,47.641229,117.82011,115.529317
满洲里市,呼伦贝尔市,150000,49.636393,49.347903,117.897797,117.223794
牙克石市,呼伦贝尔市,150000,50.873022,47.662951,122.498501,120.465246
扎兰屯市,呼伦贝尔市,150000,48.609359,47.09537,123.297552,120.488823
额尔古纳市,呼伦贝尔市,150000,53.337178,49.97711,121.817992,119.125698
根河市,呼伦贝尔市,150000,52.515041,50.410118,122.885764,120.185962
临河区,巴彦淖尔市,150000,41.278552,40.556933,107.73112,107.109778
五原县,巴彦淖尔市,150000,41.280321,40.757327,108.631131,107.598132
磴口县,巴彦淖尔市,150000,40.954987,40.168057,107.173246,106.157684
乌拉特前旗,巴彦淖尔市,150000,41.269452,40.455906,109.903395,108.174958
乌拉特中旗,巴彦淖尔市,150000,42.460344,41.130963,109.703639,107.266847
乌拉特后旗,巴彦淖尔市,150000,42.364093,40.692658,107.630327,105.201607
杭锦后旗,巴彦淖尔市,150000,41.222641,40.460534,107.392662,106.59334
集宁区,乌兰察布市,150000,41.227288,40.92187,113.328741,113.013656
卓资县,乌兰察布市,150000,41.260349,40.642408,112.958375,111.859759
化德县,乌兰察布市,150000,42.29858,41.615961,114.809227,113.565975
商都县,乌兰察布市,150000,42.143683,41.296987,114.259316,113.131635
兴和县,乌兰察布市,150000,41.447639,40.456467,114.134744,113.358122
凉城县,乌兰察布市,150000,40.841589,40.167384,113.028577,112.045227
察哈尔右翼前旗,乌兰察布市,150000,41.205386,40.684915,113.669359,112.813423
察哈尔右翼中旗,乌兰察布市,150000,41.833481,41.019814,112.865305,111.931797
察哈尔右翼后旗,乌兰察布市,150000,41.988575,41.067801,113.523231,112.711209
四子王旗,乌兰察布市,150000,43.380246,41.192634,113.002102,110.339884
丰镇市,乌兰察布市,150000,40.80265,40.318187,113.794957,112.803441
乌兰浩特市,兴安盟,150000,46.297905,45.700619,122.828527,121.878415
阿尔山市,兴安盟,150000,47.658137,46.662325,121.406145,119.481296
科尔沁右翼前旗,兴安盟,150000,47.028991,45.817708,122.820746,119.835773
科尔沁右翼中旗,兴安盟,150000,46.213838,44.255427,122.294457,119.565525
扎赉特旗,兴安盟,150000,47.350441,46.073203,123.631749,121.29444
突泉县,兴安盟,150000,46.091368,45.197962,122.17984,120.737299
二连浩特市,锡林郭勒盟,150000,43.801254,42.964476,112.432639,111.343108
锡林浩特市,锡林郭勒盟,150000,44.890537,43.03431,117.054309,115.323268
阿巴嘎旗,锡林郭勒盟,150000,45.438313,43.088438,116.183125,113.49989
苏尼特左旗,锡林郭勒盟,150000,45.095999,42.750864,115.188615,111.416015
苏尼特右旗,锡林郭勒盟,150000,43.669486,41.932858,114.271561,111.150972
东乌珠穆沁旗,锡林郭勒盟,150000,46.774907,44.701187,119.984569,115.177758
西乌珠穆沁旗,锡林郭勒盟,150000,45.378761,43.964636,119.37441,116.392215
太仆寺旗,锡林郭勒盟,150000,42.178966,41.571413,115.82671,114.858861
镶黄旗,锡林郭勒盟,150000,42.758879,41.950631,114.763251,113.377254
正镶白旗,锡林郭勒盟,150000,43.026921,42.092479,115.604119,114.271561
正蓝旗,锡林郭勒盟,150000,43.143266,41.9275,116.674246,115.0173
多伦县,锡林郭勒盟,150000,42.614732,41.776381,116.918523,115.920426
阿拉善左旗,阿拉善盟,150000,41.882359,37.406779,106.866854,103.3623
阿拉善右旗,阿拉善盟,150000,42.066023,38.65312,104.640439,99.441002
额济纳旗,阿拉善盟,150000,42.795163,40.405407,103.103721,97.172763
和平区,沈阳市,210000,41.817398,41.690589,123.445752,123.318461
沈河区,沈阳市,210000,41.847653,41.74836,123.581504,123.422597
大东区,沈阳市,210000,41.94727,41.776669,123.571155,123.448554
皇姑区,沈阳市,210000,41.912515,41.798358,123.486186,123.352858
铁西区,沈阳市,210000,41.836869,41.505097,123.402177,122.901204
苏家屯区,沈阳市,210000,41.721092,41.462876,123.791989,123.104938
浑南区,沈阳市,210000,42.076421,41.60471,123.814158,123.371763
沈北新区,沈阳市,210000,42.19288,41.878537,123.725138,123.272594
于洪区,沈阳市,210000,42.072761,41.715076,123.419108,123.112174
辽中区,沈阳市,210000,41.786552,41.199854,123.039474,122.476726
康平县,沈阳市,210000,43.042711,42.515777,123.626288,122.747329
法库县,沈阳市,210000,42.657223,42.138726,123.759323,122.744981
新民市,沈阳市,210000,42.288597,41.70978,123.344111,122.422106
中山区,大连市,210000,38.946484,38.640973,122.170643,121.614671
西岗区,大连市,210000,38.95002,38.862699,121.657631,121.586886
沙河口区,大连市,210000,38.948622,38.864024,121.610674,121.533481
甘井子区,大连市,210000,39.155586,38.793729,121.764739,121.158092
旅顺口区,大连市,210000,38.973722,38.719833,121.478077,120.975301
金州区,大连市,210000,39.539857,38.942488,122.303645,121.445129
普兰店区,大连市,210000,39.985024,39.305152,122.612613,121.853347
长海县,大连市,210000,39.30832,39.009699,123.227984,122.299951
瓦房店市,大连市,210000,40.120492,39.281186,122.285071,121.224006
庄河市,大连市,210000,40.205189,39.42694,123.518921,122.491329
铁东区,鞍山市,210000,41.13295,40.978983,123.215614,122.937984
铁西区,鞍山市,210000,41.202704,41.06475,123.022673,122.830623
立山区,鞍山市,210000,41.208446,41.042229,123.235526,122.985159
千山区,鞍山市,210000,41.075035,40.9078,123.097117,122.759935
台安县,鞍山市,210000,41.570453,41.006633,122.658981,122.192264
岫岩满族自治县,鞍山市,210000,40.826998,40.000197,123.769536,122.872869
海城市,鞍山市,210000,41.178905,40.476994,123.150743,122.318706
新抚区,抚顺市,210000,41.880048,41.727676,124.011767,123.823681
东洲区,抚顺市,210000,42.073464,41.724675,124.40055,123.926555
望花区,抚顺市,210000,41.992352,41.597822,123.950918,123.66357
顺城区,抚顺市,210000,42.03361,41.858081,124.058014,123.759386
抚顺县,抚顺市,210000,41.927966,41.454963,124.452248,123.721757
新宾满族自治县,抚顺市,210000,41.985183,41.238835,125.470729,124.306315
清原满族自治县,抚顺市,210000,42.478881,41.805188,125.490053,124.341947
平山区,本溪市,210000,41.307297,41.146553,123.791348,123.596906
溪湖区,本溪市,210000,41.541558,41.269116,123.855671,123.591007
明山区,本溪市,210000,41.505322,41.203551,124.014834,123.746674
南芬区,本溪市,210000,41.243794,40.949787,123.997311,123.646954
本溪满族自治县,本溪市,210000,41.568445,40.815349,124.76734,123.582283
桓仁满族自治县,本溪市,210000,41.568359,40.907866,125.791459,124.726989
元宝区,丹东市,210000,40.230953,40.127741,124.420156,124.227691
振兴区,丹东市,210000,40.158546,39.745422,124.401364,124.102375
振安区,丹东市,210000,40.396936,40.071573,124.736568,124.091616
宽甸满族自治县,丹东市,210000,41.154818,40.216899,125.707761,124.346482
东港市,丹东市,210000,40.219443,39.745235,124.295452,123.376898
凤城市,丹东市,210000,41.100986,40.035123,124.545203,123.533746
古塔区,锦州市,210000,41.19712,41.102496,121.14075,120.999388
凌河区,锦州市,210000,41.158759,41.095111,121.255645,121.129929
太和区,锦州市,210000,41.305821,40.778079,121.402214,120.941115
黑山县,锦州市,210000,42.129026,41.460177,122.600354,121.831639
义县,锦州市,210000,41.80399,41.282842,121.745936,120.876013
凌海市,锦州市,210000,41.435053,40.830063,121.763579,120.716806
北镇市,锦州市,210000,41.806275,41.32255,122.207363,121.577755
站前区,营口市,210000,40.745341,40.64478,122.306059,122.201642
西市区,营口市,210000,40.7117,40.452728,122.388321,122.133083
鲅鱼圈区,营口市,210000,40.376224,40.150663,122.356711,122.020363
老边区,营口市,210000,40.744964,40.475035,122.460167,122.24888
盖州市,营口市,210000,40.566711,39.920409,122.896826,121.935897
大石桥市,营口市,210000,40.940403,40.319546,122.999225,122.096454
海州区,阜新市,210000,42.025292,41.906814,121.722633,121.571722
新邱区,阜新市,210000,42.131912,41.983801,121.892489,121.753093
太平区,阜新市,210000,42.045566,41.945405,121.813449,121.652057
清河门区,阜新市,210000,41.805625,41.692981,121.538287,121.332728
细河区,阜新市,210000,42.119673,41.945839,121.709023,121.529881
阜新蒙古族自治县,阜新市,210000,42.572372,41.763842,122.432346,121.027498
彰武县,阜新市,210000,42.84332,42.138968,122.97444,121.895105
白塔区,辽阳市,210000,41.294617,41.229003,123.236178,123.138713
文圣区,辽阳市,210000,41.377482,41.160437,123.501762,123.208824
宏伟区,辽阳市,210000,41.24998,41.127551,123.347824,123.130367
弓长岭区,辽阳市,210000,41.303485,41.047651,123.554658,123.24896
太子河区,辽阳市,210000,41.423983,41.171171,123.223834,122.950894
辽阳县,辽阳市,210000,41.424796,40.712669,123.689739,122.593627
灯塔市,辽阳市,210000,41.617387,41.233171,123.671959,122.912633
双台子区,盘锦市,210000,41.271737,41.145631,122.139869,121.927202
兴隆台区,盘锦市,210000,41.230823,40.817689,122.196486,121.485506
大洼区,盘锦市,210000,41.150745,40.648624,122.364619,121.792873
盘山县,盘锦市,210000,41.459604,40.987663,122.488777,121.56679
银州区,铁岭市,210000,42.339785,42.158371,123.978821,123.754094
清河区,铁岭市,210000,42.631357,42.381256,124.450607,124.068777
铁岭县,铁岭市,210000,42.543333,41.988697,124.550106,123.449597
西丰县,铁岭市,210000,43.134319,42.368156,125.109454,124.28029
昌图县,铁岭市,210000,43.490984,42.551369,124.442441,123.546818
调兵山市,铁岭市,210000,42.553069,42.34421,123.704043,123.454059
开原市,铁岭市,210000,42.892091,42.118142,124.822383,123.73697
双塔区,朝阳市,210000,41.782551,41.402514,120.650353,120.413769
龙城区,朝阳市,210000,41.757553,41.385299,120.475065,120.068139
朝阳县,朝阳市,210000,41.909912,40.921962,120.790304,119.881438
建平县,朝阳市,210000,42.388031,41.310998,120.052105,119.237653
喀喇沁左翼蒙古族自治县,朝阳市,210000,41.559677,40.780477,120.063881,119.467647
北票市,朝阳市,210000,42.279832,41.395108,121.301931,120.266863
凌源市,朝阳市,210000,41.424495,40.5971,119.63697,118.845467
连山区,葫芦岛市,210000,41.010764,40.713311,121.014342,120.237294
龙港区,葫芦岛市,210000,40.832739,40.655741,121.042491,120.742547
南票区,葫芦岛市,210000,41.203049,40.828759,121.038774,120.454511
绥中县,葫芦岛市,210000,40.619073,39.987346,120.524771,119.586653
建昌县,葫芦岛市,210000,41.101647,40.407364,120.298707,119.219658
兴城市,葫芦岛市,210000,40.83388,40.269135,120.8376,120.10247
南关区,长春市,220000,43.916643,43.513957,125.577422,125.259338
宽城区,长春市,220000,44.26314,43.894721,125.604339,125.002649
朝阳区,长春市,220000,43.898469,43.441011,125.387663,125.08803
二道区,长春市,220000,43.960187,43.757422,125.825651,125.351926
绿园区,长春市,220000,44.007254,43.795246,125.314721,125.061702
双阳区,长春市,220000,43.800164,43.262722,126.020604,125.447558
九台区,长春市,220000,44.528508,43.849066,126.50469,125.411882
农安县,长春市,220000,44.939433,43.900694,125.764296,124.545431
榆树市,长春市,220000,45.252686,44.512053,127.093726,126.037715
德惠市,长春市,220000,44.887584,44.219993,126.413201,125.330918
公主岭市,长春市,220000,44.159811,43.161456,125.31772,124.015699
昌邑区,吉林市,220000,44.19309,43.832612,126.603872,126.000174
龙潭区,吉林市,220000,44.307167,43.811131,126.860308,126.41445
船营区,吉林市,220000,43.98772,43.705093,126.56712,126.023368
丰满区,吉林市,220000,43.867782,43.445179,126.937681,126.36573
永吉县,吉林市,220000,43.88919,43.313099,126.661453,125.801755
蛟河市,吉林市,220000,44.146434,43.208523,127.924725,126.752613
桦甸市,吉林市,220000,43.484431,42.561476,127.852531,126.275246
舒兰市,吉林市,220000,44.648158,43.95903,127.756468,126.413201
磐石市,吉林市,220000,43.456434,42.668498,126.690588,125.645738
铁西区,四平市,220000,43.437838,43.124384,124.801356,124.259514
铁东区,四平市,220000,43.223289,42.822591,124.891314,124.333389
梨树县,四平市,220000,43.771196,43.231899,124.763272,123.764699
伊通满族自治县,四平市,220000,43.649823,43.055994,125.790218,124.829378
双辽市,四平市,220000,44.11017,43.366279,124.10507,123.304512
龙山区,辽源市,220000,43.036266,42.815733,125.340688,125.072807
西安区,辽源市,220000,42.99518,42.909667,125.194405,125.05626
东丰县,辽源市,220000,43.233981,42.300486,125.844204,125.05511
东辽县,辽源市,220000,43.228974,42.615356,125.59447,124.840024
东昌区,通化市,220000,41.822879,41.541111,126.122611,125.845766
二道江区,通化市,220000,41.864969,41.664353,126.321212,125.965988
通化县,通化市,220000,42.123809,41.331093,126.425464,125.291109
辉南县,通化市,220000,42.816551,42.269598,126.750385,125.981829
柳河县,通化市,220000,42.579954,41.881842,126.580017,125.291892
梅河口市,通化市,220000,43.020095,42.141852,126.070471,125.261114
集安市,通化市,220000,41.597867,40.866346,126.551878,125.576934
浑江区,白山市,220000,42.075452,41.5008,126.688194,126.120486
江源区,白山市,220000,42.229351,41.822621,127.231092,126.391301
抚松县,白山市,220000,42.821906,41.71339,128.090749,127.026863
靖宇县,白山市,220000,42.844034,42.105094,127.276403,126.510718
长白朝鲜族自治县,白山市,220000,41.969235,41.364348,128.317883,127.212062
临江市,白山市,220000,42.066377,41.526276,127.835099,126.558035
宁江区,松原市,220000,45.541208,45.070081,125.108404,124.576877
前郭尔罗斯蒙古族自治县,松原市,220000,45.458721,44.299402,125.313109,123.618764
长岭县,松原市,220000,44.708192,43.985109,124.762826,123.114467
乾安县,松原市,220000,45.313423,44.639464,124.389026,123.419706
扶余市,松原市,220000,45.52196,44.760954,126.196504,124.960237
洮北区,白城市,220000,45.964874,45.357977,123.264158,122.360377
镇赉县,白城市,220000,46.30362,45.609095,124.082257,122.79314
通榆县,白城市,220000,45.275988,44.232907,123.525571,122.044907
洮南市,白城市,220000,46.02586,45.041944,123.344208,121.644198
大安市,白城市,220000,45.765207,44.951804,124.373755,123.155037
延吉市,延边朝鲜族自治州,220000,43.412844,42.800969,129.701798,129.028995
图们市,延边朝鲜族自治州,220000,43.215726,42.779316,130.212916,129.541686
敦化市,延边朝鲜族自治州,220000,44.514338,42.707325,129.218796,127.469083
珲春市,延边朝鲜族自治州,220000,43.508754,42.422693,131.321771,130.073034
龙井市,延边朝鲜族自治州,220000,43.061731,42.360224,129.798852,128.937543
和龙市,延边朝鲜族自治州,220000,42.95646,41.996431,129.413048,128.385433
汪清县,延边朝鲜族自治州,220000,44.051148,43.111278,130.907438,129.091803
安图县,延边朝鲜族自治州,220000,43.40324,42.011544,129.190206,127.808403
道里区,哈尔滨市,230000,45.789053,45.549539,126.635139,126.150185
南岗区,哈尔滨市,230000,45.783644,45.537352,126.721667,126.437888
道外区,哈尔滨市,230000,46.006342,45.726156,127.1208,126.623076
平房区,哈尔滨市,230000,45.635214,45.528458,126.772321,126.575209
松北区,哈尔滨市,230000,46.095985,45.732718,126.716871,126.169494
香坊区,哈尔滨市,230000,45.818919,45.595137,127.001268,126.565775
呼兰区,哈尔滨市,230000,46.420763,45.843701,127.31049,126.383345
阿城区,哈尔滨市,230000,45.79904,45.170375,127.65786,126.675779
双城区,哈尔滨市,230000,45.712883,45.133527,126.721608,125.687894
依兰县,哈尔滨市,230000,46.658119,45.846048,130.240839,129.199185
方正县,哈尔滨市,230000,46.161416,45.548717,129.564561,128.234573
宾县,哈尔滨市,230000,46.037555,45.518932,128.329126,126.936624
巴彦县,哈尔滨市,230000,46.674386,45.908288,127.708649,126.763799
木兰县,哈尔滨市,230000,46.605821,45.906455,128.315089,127.534282
通河县,哈尔滨市,230000,46.625686,45.875235,129.435621,128.155965
延寿县,哈尔滨市,230000,45.759528,45.173104,129.082694,127.913659
尚志市,哈尔滨市,230000,45.592028,44.490781,129.211084,127.378452
五常市,哈尔滨市,230000,45.445769,44.062236,128.271709,126.553267
龙沙区,齐齐哈尔市,230000,47.360021,47.179697,124.003012,123.834559
建华区,齐齐哈尔市,230000,47.454864,47.343849,124.131344,123.90995
铁锋区,齐齐哈尔市,230000,47.414255,47.131183,124.48237,123.967317
昂昂溪区,齐齐哈尔市,230000,47.293629,46.991508,124.195664,123.672747
富拉尔基区,齐齐哈尔市,230000,47.365923,47.070202,123.745245,123.414371
碾子山区,齐齐哈尔市,230000,47.693585,47.429222,123.092285,122.805777
梅里斯达斡尔族区,齐齐哈尔市,230000,47.877527,47.218426,124.312306,123.528047
龙江县,齐齐哈尔市,230000,47.664185,46.718805,123.627086,122.418106
依安县,齐齐哈尔市,230000,48.058642,47.285397,125.710226,124.833102
泰来县,齐齐哈尔市,230000,47.125909,46.222957,124.023386,123.002594
甘南县,齐齐哈尔市,230000,48.536589,47.587883,124.478154,122.908359
富裕县,齐齐哈尔市,230000,48.025161,47.307718,125.055855,123.970061
克山县,齐齐哈尔市,230000,48.566093,47.849289,126.146224,125.190494
克东县,齐齐哈尔市,230000,48.293556,47.708427,126.667401,126.028968
拜泉县,齐齐哈尔市,230000,47.884252,47.300206,126.558415,125.51166
讷河市,齐齐哈尔市,230000,48.932592,47.96554,126.007893,124.310628
鸡冠区,鸡西市,230000,45.372033,45.226683,131.073387,130.844448
恒山区,鸡西市,230000,45.329438,44.972402,131.104172,130.712078
滴道区,鸡西市,230000,45.483484,45.200206,130.961371,130.552246
梨树区,鸡西市,230000,45.210597,44.965463,130.903716,130.566876
城子河区,鸡西市,230000,45.459385,45.292894,131.103496,130.923192
麻山区,鸡西市,230000,45.383774,45.053819,130.688453,130.398653
鸡东县,鸡西市,230000,45.686246,44.854601,131.695532,130.685246
虎林市,鸡西市,230000,46.61133,45.395723,133.950121,132.152401
密山市,鸡西市,230000,45.926388,45.017352,133.149762,131.24676
向阳区,鹤岗市,230000,47.368825,47.316613,130.319713,130.268421
工农区,鹤岗市,230000,47.357157,47.288987,130.288248,130.240549
南山区,鹤岗市,230000,47.318449,47.241222,130.318474,130.243327
兴安区,鹤岗市,230000,47.31984,47.169883,130.334276,129.962356
东山区,鹤岗市,230000,47.652876,47.060859,130.692799,129.836528
兴山区,鹤岗市,230000,47.41851,47.351403,130.36044,130.281343
萝北县,鹤岗市,230000,48.354478,47.192477,131.590428,129.672278
绥滨县,鹤岗市,230000,47.767198,47.181424,132.523984,131.149216
尖山区,双鸭山市,230000,46.706691,46.589056,131.266296,131.067543
岭东区,双鸭山市,230000,46.657139,46.343303,131.484999,130.945258
四方台区,双鸭山市,230000,46.788604,46.56645,131.399657,131.169969
宝山区,双鸭山市,230000,46.639449,46.371811,131.799085,131.288687
集贤县,双鸭山市,230000,47.076275,46.579086,131.632974,130.656837
友谊县,双鸭山市,230000,46.989436,46.519588,132.267207,131.462443
宝清县,双鸭山市,230000,46.900759,45.787796,133.503981,131.247675
饶河县,双鸭山市,230000,47.577533,46.508292,134.346493,133.131796
萨尔图区,大庆市,230000,46.873983,46.557708,125.215036,124.883731
龙凤区,大庆市,230000,46.707412,46.376308,125.278564,124.915674
让胡路区,大庆市,230000,47.036276,46.406331,125.030035,124.567554
红岗区,大庆市,230000,46.588854,46.151945,125.068151,124.648424
大同区,大庆市,230000,46.448739,45.771713,125.114669,124.22764
肇州县,大庆市,230000,46.266132,45.586406,125.808845,124.805446
肇源县,大庆市,230000,46.029419,45.382657,125.764479,124.001553
林甸县,大庆市,230000,47.478802,46.824021,125.344561,124.336807
杜尔伯特蒙古族自治县,大庆市,230000,47.141809,45.877993,124.714003,123.754497
伊美区,伊春市,230000,48.073882,47.36866,129.875196,128.821496
乌翠区,伊春市,230000,47.994746,47.307307,128.987378,128.222026
友好区,伊春市,230000,48.41432,47.766156,129.217307,128.132137
嘉荫县,伊春市,230000,49.442701,48.141986,130.781408,129.171242
汤旺县,伊春市,230000,48.960024,48.375784,129.877941,128.987561
丰林县,伊春市,230000,48.484515,47.937241,129.903381,128.855432
大箐山县,伊春市,230000,47.372644,46.482864,129.40603,128.53225
南岔县,伊春市,230000,47.380644,46.60441,129.899939,128.874383
金林区,伊春市,230000,47.754689,47.233198,129.942509,129.041345
铁力市,伊春市,230000,47.461831,46.564964,128.714442,127.628717
向阳区,佳木斯市,230000,46.860919,46.764013,130.434629,130.285663
前进区,佳木斯市,230000,46.827206,46.730356,130.464511,130.363459
东风区,佳木斯市,230000,46.998235,46.745742,130.627354,130.394793
郊区,佳木斯市,230000,47.039256,46.481898,130.61133,129.921215
桦南县,佳木斯市,230000,46.630182,45.945307,131.630318,129.923867
桦川县,佳木斯市,230000,47.230934,46.530677,131.566508,130.477458
汤原县,佳木斯市,230000,47.338507,46.530864,130.990023,129.501453
同江市,佳木斯市,230000,48.305239,47.42285,134.123115,132.316048
富锦市,佳木斯市,230000,47.619444,46.753862,133.454174,131.435649
抚远市,佳木斯市,230000,48.459567,47.426966,135.09567,133.678347
新兴区,七台河市,230000,46.250703,45.740089,131.580112,130.690133
桃山区,七台河市,230000,45.816272,45.706447,131.060686,130.915479
茄子河区,七台河市,230000,46.217898,45.598036,131.934073,131.020145
勃利县,七台河市,230000,46.122301,45.588681,131.024622,130.103719
东安区,牡丹江市,230000,44.594444,44.200547,130.081521,129.576334
阳明区,牡丹江市,230000,44.986886,44.394507,130.164428,129.622763
爱民区,牡丹江市,230000,44.838173,44.552791,129.692277,129.324169
西安区,牡丹江市,230000,44.663781,44.375518,129.749106,129.394551
林口县,牡丹江市,230000,45.987615,44.662962,130.779093,129.299684
绥芬河市,牡丹江市,230000,44.536608,44.294173,131.234799,130.940646
海林市,牡丹江市,230000,45.627428,44.1964,129.97917,128.231126
宁安市,牡丹江市,230000,44.46248,43.523079,130.055082,128.462629
穆棱市,牡丹江市,230000,45.124067,43.834417,131.15091,129.900592
东宁市,牡丹江市,230000,44.722394,43.425798,131.310655,130.336252
爱辉区,黑河市,230000,50.983001,49.415985,127.608655,125.831128
逊克县,黑河市,230000,49.604651,48.026589,129.527552,127.388704
孙吴县,黑河市,230000,49.821551,48.984351,128.0313,126.666355
北安市,黑河市,230000,48.554427,47.58569,127.900008,126.284996
五大连池市,黑河市,230000,49.203191,48.272822,127.553457,125.706963
嫩江市,黑河市,230000,51.003254,48.71241,126.832203,124.748429
北林区,绥化市,230000,47.171179,46.323218,127.378156,126.422983
望奎县,绥化市,230000,47.142286,46.538892,126.990985,126.178779
兰西县,绥化市,230000,46.640985,46.048089,126.641948,125.712523
青冈县,绥化市,230000,47.123344,46.480552,126.376729,125.318569
庆安县,绥化市,230000,47.609068,46.504163,128.552535,127.226522
明水县,绥化市,230000,47.379665,47.029433,126.448499,125.285273
绥棱县,绥化市,230000,48.09767,47.045959,128.350858,126.992996
安达市,绥化市,230000,47.012832,46.016081,125.924445,124.875928
肇东市,绥化市,230000,46.428145,45.508221,126.366333,125.336707
海伦市,绥化市,230000,47.839399,46.962555,127.754641,126.228283
漠河市,大兴安岭地区,230000,53.563624,52.252665,124.286864,121.181753
加格达奇区,大兴安岭地区,230000,50.569733,50.178422,124.444766,123.765761
呼玛县,大兴安岭地区,230000,52.899181,50.90212,127.030984,122.625109
塔河县,大兴安岭地区,230000,53.349379,52.153714,125.831263,123.325139
黄浦区,上海城区,310000,31.244242,31.187888,121.509905,121.456756
徐汇区,上海城区,310000,31.220194,31.100756,121.475985,121.391507
长宁区,上海城区,310000,31.243981,31.177781,121.439464,121.331804
静安区,上海城区,310000,31.3214,31.21441,121.482989,121.418646
普陀区,上海城区,310000,31.302885,31.218276,121.451467,121.326069
虹口区,上海城区,310000,31.316035,31.24192,121.517651,121.460051
杨浦区,上海城区,310000,31.346799,31.246951,121.569525,121.4854
闵行区,上海城区,310000,31.259628,30.975909,121.575445,121.239933
宝山区,上海城区,310000,31.512056,31.265239,121.525486,121.299931
嘉定区,上海城区,310000,31.49676,31.227132,121.380891,121.106542
浦东新区,上海城区,310000,31.394788,30.777097,122.012615,121.457268
金山区,上海城区,310000,30.951044,30.675593,121.478769,120.989122
松江区,上海城区,310000,31.160189,30.89434,121.372022,121.024883
青浦区,上海城区,310000,31.292081,30.93922,121.323858,120.856804
奉贤区,上海城区,310000,31.014954,30.756343,121.781157,121.351156
崇明区,上海城区,310000,31.872716,31.255658,122.247149,121.118496
玄武区,南京市,320000,32.106133,32.014837,118.911862,118.783824
秦淮区,南京市,320000,32.042902,31.974724,118.88064,118.763979
建邺区,南京市,320000,32.092952,31.955861,118.768467,118.653251
鼓楼区,南京市,320000,32.132457,32.029106,118.80694,118.718702
浦口区,南京市,320000,32.251049,31.841579,118.776745,118.363373
栖霞区,南京市,320000,32.245159,32.025505,119.241663,118.764751
雨花台区,南京市,320000,32.013666,31.866563,118.813228,118.588269
江宁区,南京市,320000,32.108727,31.618368,119.121715,118.482157
六合区,南京市,320000,32.614363,32.167248,119.086016,118.563729
溧水区,南京市,320000,31.789617,31.378943,119.234062,118.833208
高淳区,南京市,320000,31.48795,31.228098,119.218014,118.699756
锡山区,无锡市,320000,31.735813,31.477027,120.605759,120.314147
惠山区,无锡市,320000,31.760277,31.552491,120.391181,120.055577
滨湖区,无锡市,320000,31.594832,31.264004,120.362578,120.039707
梁溪区,无锡市,320000,31.630931,31.512825,120.352851,120.240331
新吴区,无锡市,320000,31.583424,31.416455,120.554102,120.313949
江阴市,无锡市,320000,31.99082,31.687476,120.600023,119.989132
宜兴市,无锡市,320000,31.610603,31.108647,120.110228,119.51966
鼓楼区,徐州市,320000,34.35633,34.263683,117.293737,117.115329
云龙区,徐州市,320000,34.284706,34.139047,117.349428,117.17921
贾汪区,徐州市,320000,34.540529,34.186666,117.720957,117.255741
泉山区,徐州市,320000,34.354811,34.197789,117.236221,117.068566
铜山区,徐州市,320000,34.817473,34.025901,117.702497,116.811099
丰县,徐州市,320000,34.940731,34.40627,116.873266,116.362723
沛县,徐州市,320000,34.975087,34.456026,117.15128,116.686484
睢宁县,徐州市,320000,34.172976,33.710785,118.188393,117.518047
新沂市,徐州市,320000,34.474856,34.096666,118.674072,118.03561
邳州市,徐州市,320000,34.679021,34.116889,118.184808,117.603189
天宁区,常州市,320000,31.870531,31.723927,120.185181,119.921262
钟楼区,常州市,320000,31.848905,31.74066,119.96059,119.736298
新北区,常州市,320000,32.059834,31.796762,120.021216,119.753613
武进区,常州市,320000,31.808554,31.332446,120.205741,119.671945
金坛区,常州市,320000,31.885497,31.558709,119.753676,119.304615
溧阳市,常州市,320000,31.684178,31.152529,119.616016,119.140539
虎丘区,苏州市,320000,31.420615,31.219913,120.80798,120.206594
吴中区,苏州市,320000,31.435865,30.925752,120.901511,119.920013
相城区,苏州市,320000,31.550994,31.335554,120.830331,120.317588
姑苏区,苏州市,320000,31.379136,31.249649,120.655236,120.528367
吴江区,苏州市,320000,31.223879,30.75784,120.905026,120.356824
常熟市,苏州市,320000,31.836711,31.493775,121.101216,120.543085
张家港市,苏州市,320000,32.045827,31.720453,120.889815,120.368882
昆山市,苏州市,320000,31.540929,31.103895,121.161286,120.808456
太仓市,苏州市,320000,31.76252,31.364642,121.372212,120.97571
通州区,南通市,320000,32.259625,31.861107,121.541001,120.62688
崇川区,南通市,320000,32.142521,31.783044,121.082947,120.732568
海门区,南通市,320000,32.153234,31.759078,121.544484,121.034807
如东县,南通市,320000,32.633811,32.171739,121.598095,120.697662
启东市,南通市,320000,32.123027,31.617039,121.975185,121.433283
如皋市,南通市,320000,32.490358,32.000988,120.838915,120.343216
海安市,南通市,320000,32.711134,32.357994,120.98172,120.202315
连云区,连云港市,320000,34.833945,34.468647,119.686734,119.154065
海州区,连云港市,320000,34.699439,34.430904,119.422846,118.968684
赣榆区,连云港市,320000,35.124513,34.675476,119.307145,118.762272
东海县,连云港市,320000,34.84672,34.308563,119.119674,118.405371
灌云县,连云港市,320000,34.550778,34.194693,119.822995,119.055349
灌南县,连云港市,320000,34.446968,33.979602,119.804826,119.129093
淮安区,淮安市,320000,33.760213,33.283461,119.62,118.998179
淮阴区,淮安市,320000,33.919593,33.34584,119.182826,118.746912
清江浦区,淮安市,320000,33.691426,33.338037,119.229878,118.888577
洪泽区,淮安市,320000,33.399423,33.047844,119.163137,118.488541
涟水县,淮安市,320000,34.093509,33.627332,119.645995,118.997317
盱眙县,淮安市,320000,33.243949,32.716039,118.917357,118.201926
金湖县,淮安市,320000,33.212778,32.798908,119.364171,118.814312
亭湖区,盐城市,320000,33.635937,33.165635,120.649963,119.981799
盐都区,盐城市,320000,33.422253,33.130908,120.222399,119.685684
大丰区,盐城市,320000,33.577368,32.910611,120.917824,120.215701
响水县,盐城市,320000,34.481984,33.945403,120.103706,119.503886
滨海县,盐城市,320000,34.391621,33.80126,120.359852,119.63425
阜宁县,盐城市,320000,33.926504,33.448203,120.001331,119.456469
射阳县,盐城市,320000,34.12191,33.451514,120.605384,119.925716
建湖县,盐城市,320000,33.685056,33.280726,120.093695,119.566877
东台市,盐城市,320000,33.025779,32.571157,120.981368,120.107829
广陵区,扬州市,320000,32.508489,32.217381,119.724141,119.424386
邗江区,扬州市,320000,32.665333,32.224989,119.519488,119.280984
江都区,扬州市,320000,32.798127,32.296478,119.911871,119.461979
宝应县,扬州市,320000,33.415822,33.015605,119.715065,119.142601
仪征市,扬州市,320000,32.60282,32.222172,119.368332,119.016454
高邮市,扬州市,320000,33.107112,32.585878,119.83294,119.184929
京口区,镇江市,320000,32.285228,32.097152,119.826853,119.44024
润州区,镇江市,320000,32.262499,32.086878,119.572633,119.292464
丹徒区,镇江市,320000,32.283021,31.825741,119.708386,119.22901
丹阳市,镇江市,320000,32.13465,31.73115,119.898969,119.404728
扬中市,镇江市,320000,32.318916,32.002334,119.975506,119.694609
句容市,镇江市,320000,32.216296,31.625209,119.385127,118.969449
海陵区,泰州市,320000,32.6409,32.37136,120.045088,119.813683
高港区,泰州市,320000,32.433186,32.152256,120.090321,119.819178
姜堰区,泰州市,320000,32.713324,32.336587,120.310101,119.894873
兴化市,泰州市,320000,33.219088,32.663831,120.317379,119.640227
靖江市,泰州市,320000,32.144902,31.931515,120.5591,120.022401
泰兴市,泰州市,320000,32.377914,31.967749,120.371617,119.905169
宿城区,宿迁市,320000,34.016453,33.552832,118.609949,118.122083
宿豫区,宿迁市,320000,34.171063,33.798597,118.599226,117.994406
沭阳县,宿迁市,320000,34.422235,33.885624,119.17625,118.502793
泗阳县,宿迁市,320000,33.984568,33.386698,118.887825,118.511254
泗洪县,宿迁市,320000,33.744685,33.134801,118.780153,117.938172
上城区,杭州市,330000,30.392776,30.192838,120.2955,120.137109
拱墅区,杭州市,330000,30.40232,30.257789,120.219011,120.086919
西湖区,杭州市,330000,30.355444,30.075476,120.183006,119.996338
滨江区,杭州市,330000,30.237666,30.136342,120.236837,120.124391
萧山区,杭州市,330000,30.297685,29.841959,120.692226,120.077128
余杭区,杭州市,330000,30.563114,30.158697,120.150484,119.68109
富阳区,杭州市,330000,30.196952,29.744438,120.147468,119.436381
临安区,杭州市,330000,30.443375,29.933075,119.868309,118.845696
临平区,杭州市,330000,30.521899,30.31067,120.345352,120.114575
钱塘区,杭州市,330000,30.389453,30.230826,120.721945,120.293256
桐庐县,杭州市,330000,30.088806,29.58764,119.973804,119.180603
淳安县,杭州市,330000,30.035265,29.188757,119.348291,118.344933
建德市,杭州市,330000,29.770956,29.205192,119.76974,118.900435
海曙区,宁波市,330000,29.949704,29.724149,121.560954,121.139375
江北区,宁波市,330000,30.056325,29.872437,121.645925,121.360702
北仑区,宁波市,330000,29.990799,29.708927,122.15845,121.652698
镇海区,宁波市,330000,30.072124,29.8945,121.788396,121.466429
鄞州区,宁波市,330000,29.907535,29.612659,121.895312,121.457536
奉化区,宁波市,330000,29.787161,29.406053,121.780895,121.050913
象山县,宁波市,330000,29.655686,28.853255,122.279016,121.571979
宁海县,宁波市,330000,29.521242,29.091149,121.820319,121.158856
余姚市,宁波市,330000,30.352861,29.669692,121.425694,120.867041
慈溪市,宁波市,330000,30.489772,30.038452,121.63263,121.040086
鹿城区,温州市,330000,28.156686,27.967382,120.807333,120.385115
龙湾区,温州市,330000,27.99744,27.758743,120.941778,120.707564
瓯海区,温州市,330000,28.099193,27.848964,120.754852,120.3347
洞头区,温州市,330000,28.011184,27.686356,121.272939,120.833207
永嘉县,温州市,330000,28.61176,28.011853,120.987196,120.331689
平阳县,温州市,330000,27.761572,27.423606,121.135651,120.073606
苍南县,温州市,330000,27.570129,27.041356,120.859132,120.06622
文成县,温州市,330000,27.982736,27.563194,120.257062,119.7836
泰顺县,温州市,330000,27.808277,27.296038,120.24899,119.625321
瑞安市,温州市,330000,27.9877,27.603126,121.2287,120.174444
乐清市,温州市,330000,28.5383,27.949745,121.257836,120.785608
龙港市,温州市,330000,27.593186,27.467265,120.709198,120.466142
南湖区,嘉兴市,330000,30.841466,30.604247,120.981244,120.662346
秀洲区,嘉兴市,330000,30.971902,30.579722,120.82486,120.533581
嘉善县,嘉兴市,330000,31.030257,30.758958,121.037741,120.745942
海盐县,嘉兴市,330000,30.639069,30.271743,121.119212,120.727131
海宁市,嘉兴市,330000,30.591771,30.262322,120.867041,120.306213
平湖市,嘉兴市,330000,30.857097,30.476932,121.340278,120.951662
桐乡市,嘉兴市,330000,30.794684,30.468239,120.668004,120.295342
吴兴区,湖州市,330000,30.965233,30.61105,120.371653,119.865764
南浔区,湖州市,330000,30.927871,30.626796,120.489072,120.072549
德清县,湖州市,330000,30.694657,30.425408,120.34362,119.761453
长兴县,湖州市,330000,31.178782,30.722096,120.104716,119.556322
安吉县,湖州市,330000,30.867202,30.373325,119.893282,119.236936
越城区,绍兴市,330000,30.130113,29.868754,120.806901,120.500542
柯桥区,绍兴市,330000,30.286319,29.697248,120.787201,120.286862
上虞区,绍兴市,330000,30.271743,29.731394,121.106487,120.644759
新昌县,绍兴市,330000,29.556796,29.223287,121.231576,120.699306
诸暨市,绍兴市,330000,29.982097,29.354537,120.539481,119.888597
嵊州市,绍兴市,330000,29.829163,29.325531,121.120463,120.468577
婺城区,金华市,330000,29.240741,28.728981,119.769993,119.304476
金东区,金华市,330000,29.306752,28.992274,119.950318,119.650351
武义县,金华市,330000,29.052344,28.523678,119.975087,119.455574
浦江县,金华市,330000,29.682253,29.347022,120.118625,119.706787
磐安县,金华市,330000,29.315973,28.827947,120.783607,120.303181
兰溪市,金华市,330000,29.456187,29.085598,119.899112,119.228702
义乌市,金华市,330000,29.549477,29.034161,120.282439,119.819712
东阳市,金华市,330000,29.495203,28.966152,120.737053,120.077064
永康市,金华市,330000,29.10227,28.758067,120.349364,119.89535
柯城区,衢州市,330000,29.190585,28.823454,118.954532,118.684907
衢江区,衢州市,330000,29.332645,28.519903,119.116657,118.737633
常山县,衢州市,330000,29.215729,28.766657,118.764604,118.256841
开化县,衢州市,330000,29.49693,28.902981,118.636927,118.028279
龙游县,衢州市,330000,29.290386,28.733326,119.345556,119.034598
江山市,衢州市,330000,28.888319,28.238192,118.818265,118.383401
定海区,舟山市,330000,30.247344,29.929389,122.282507,121.821887
普陀区,舟山市,330000,30.212627,29.598931,122.949508,121.998309
岱山县,舟山市,330000,30.600304,30.128643,122.946351,121.581855
嵊泗县,舟山市,330000,30.861088,30.562198,122.839914,121.57112
椒江区,台州市,330000,28.776191,28.387581,121.945198,121.3454
黄岩区,台州市,330000,28.725729,28.472461,121.365216,120.797602
路桥区,台州市,330000,28.641849,28.443575,121.671119,121.291817
三门县,台州市,330000,29.199456,28.835539,121.808756,121.205078
天台县,台州市,330000,29.340145,28.951306,121.265224,120.691546
仙居县,台州市,330000,28.993408,28.465019,120.935844,120.289981
温岭市,台州市,330000,28.530102,28.20962,121.739444,121.170848
临海市,台州市,330000,29.066543,28.638956,121.942713,120.827017
玉环市,台州市,330000,28.319987,28.012265,121.534476,121.108392
莲都区,丽水市,330000,28.732764,28.103144,120.140489,119.615037
青田县,丽水市,330000,28.480791,27.931343,120.439011,119.80438
缙云县,丽水市,330000,28.950115,28.406774,120.426701,119.8715
遂昌县,丽水市,330000,28.812098,28.210776,119.509973,118.69903
松阳县,丽水市,330000,28.60409,28.239699,119.711542,119.172263
云和县,丽水市,330000,28.309809,27.890529,119.745296,119.353985
庆元县,丽水市,330000,27.85546,27.416888,119.501823,118.835926
景宁畲族自治县,丽水市,330000,28.185508,27.648551,119.975252,119.235813
龙泉市,丽水市,330000,28.332526,27.705671,119.430215,118.718784
瑶海区,合肥市,340000,32.059082,31.816126,117.453097,117.288102
庐阳区,合肥市,340000,31.964073,31.853348,117.30004,117.067382
蜀山区,合肥市,340000,32.027716,31.673151,117.281181,116.855811
包河区,合肥市,340000,31.86272,31.636922,117.432206,117.233438
长丰县,合肥市,340000,32.536642,31.926284,117.444991,116.978401
肥东县,合肥市,340000,32.269459,31.559753,117.885096,117.321336
肥西县,合肥市,340000,31.954289,31.499259,117.428758,116.687475
庐江县,合肥市,340000,31.56857,30.95099,117.575389,117.032249
巢湖市,合肥市,340000,32.002259,31.271037,117.973318,117.436086
镜湖区,芜湖市,340000,31.388899,31.145601,118.497755,118.33813
鸠江区,芜湖市,340000,31.538232,31.172549,118.575124,117.993629
弋江区,芜湖市,340000,31.328606,31.098768,118.454503,118.07453
湾沚区,芜湖市,340000,31.311747,30.937573,118.733578,118.431159
繁昌区,芜湖市,340000,31.206158,30.960404,118.370514,117.983599
南陵县,芜湖市,340000,31.176526,30.640853,118.513291,117.966447
无为市,芜湖市,340000,31.503687,30.939487,118.136625,117.482556
龙子湖区,蚌埠市,340000,32.983089,32.837161,117.531208,117.361498
蚌山区,蚌埠市,340000,32.951732,32.816619,117.420801,117.298045
禹会区,蚌埠市,340000,32.95761,32.734676,117.354992,117.089311
淮上区,蚌埠市,340000,33.09292,32.948084,117.64571,117.237861
怀远县,蚌埠市,340000,33.307044,32.716167,117.325656,116.735668
五河县,蚌埠市,340000,33.34535,32.910764,118.074904,117.51707
固镇县,蚌埠市,340000,33.501553,33.01917,117.60312,117.051239
大通区,淮南市,340000,32.757816,32.520231,117.21528,117.02772
田家庵区,淮南市,340000,32.684449,32.384578,117.079583,116.907264
谢家集区,淮南市,340000,32.674295,32.385431,117.016523,116.802144
八公山区,淮南市,340000,32.710583,32.596575,116.880781,116.772608
潘集区,淮南市,340000,32.936956,32.64885,117.098398,116.665723
凤台县,淮南市,340000,33.004778,32.553857,116.792148,116.358938
寿县,淮南市,340000,32.661119,31.903425,117.072212,116.478486
花山区,马鞍山市,340000,31.778359,31.661921,118.697696,118.418665
雨山区,马鞍山市,340000,31.710777,31.570442,118.6502,118.441956
博望区,马鞍山市,340000,31.682613,31.449258,118.886286,118.581058
当涂县,马鞍山市,340000,31.697424,31.290669,118.86963,118.376538
含山县,马鞍山市,340000,31.906244,31.399137,118.224921,117.901366
和县,马鞍山市,340000,32.05961,31.443503,118.504736,118.083499
杜集区,淮北市,340000,34.24871,33.938514,117.051114,116.801899
相山区,淮北市,340000,34.021414,33.911768,116.859524,116.599713
烈山区,淮北市,340000,33.971197,33.670423,116.99959,116.788285
濉溪县,淮北市,340000,33.974034,33.28153,116.973803,116.393699
铜官区,铜陵市,340000,31.019449,30.876236,117.928464,117.738372
义安区,铜陵市,340000,31.140212,30.748443,118.164784,117.732203
郊区,铜陵市,340000,31.019093,30.414479,117.857036,116.919961
枞阳县,铜陵市,340000,31.087522,30.630604,117.592996,117.080104
迎江区,安庆市,340000,30.706637,30.465862,117.252585,117.035342
大观区,安庆市,340000,30.585896,30.354473,117.058194,116.750134
宜秀区,安庆市,340000,30.773166,30.519166,117.194558,116.953461
怀宁县,安庆市,340000,30.817834,30.348019,116.998695,116.478455
太湖县,安庆市,340000,30.75986,30.123763,116.499527,115.762324
宿松县,安庆市,340000,30.42814,29.782063,116.585568,115.884912
望江县,安庆市,340000,30.430659,30.045405,116.928798,116.440214
岳西县,安庆市,340000,31.182047,30.653894,116.562682,115.846974
桐城市,安庆市,340000,31.268459,30.679771,117.241369,116.686184
潜山市,安庆市,340000,31.074997,30.454655,116.775085,116.240927
屯溪区,黄山市,340000,29.834658,29.656212,118.407126,118.191827
黄山区,黄山市,340000,30.517288,29.995342,118.357404,117.824134
徽州区,黄山市,340000,30.081621,29.760526,118.418434,118.105623
歙县,黄山市,340000,30.111899,29.505576,118.902578,118.267902
休宁县,黄山市,340000,30.029016,29.393037,118.446695,117.646041
黟县,黄山市,340000,30.192304,29.789083,118.104811,117.649281
祁门县,黄山市,340000,30.131491,29.584316,117.956598,117.203024
琅琊区,滁州市,340000,32.443257,32.271207,118.439483,118.17518
南谯区,滁州市,340000,32.60992,32.085777,118.510172,117.833223
来安县,滁州市,340000,32.744804,32.188225,118.714321,118.306508
全椒县,滁州市,340000,32.242903,31.850926,118.421967,117.810931
定远县,滁州市,340000,32.703402,32.20305,118.112274,117.191611
凤阳县,滁州市,340000,33.047608,32.617396,117.946326,117.160942
天长市,滁州市,340000,32.960733,32.452532,119.230997,118.661009
明光市,滁州市,340000,33.21796,32.444553,118.429887,117.833207
颍州区,阜阳市,340000,33.011955,32.706694,115.985004,115.451629
颍东区,阜阳市,340000,33.093702,32.755129,116.198483,115.836196
颍泉区,阜阳市,340000,33.157151,32.891058,115.931319,115.519846
临泉县,阜阳市,340000,33.153979,32.578063,115.522947,114.882751
太和县,阜阳市,340000,33.585118,33.074368,115.927821,115.394789
阜南县,阜阳市,340000,32.911167,32.402996,115.962757,115.275603
颍上县,阜阳市,340000,32.900224,32.425381,116.6351,115.918064
界首市,阜阳市,340000,33.523454,33.004521,115.530488,115.247092
埇桥区,宿州市,340000,34.099623,33.278027,117.428658,116.859735
砀山县,宿州市,340000,34.650809,34.266126,116.638161,116.162049
萧县,宿州市,340000,34.488627,33.937168,117.150319,116.528013
灵璧县,宿州市,340000,34.062072,33.322104,117.759214,117.285793
泗县,宿州市,340000,33.767786,33.275081,118.186029,117.634067
金安区,六安市,340000,32.0301,31.278673,116.83855,116.449587
裕安区,六安市,340000,32.07394,31.452221,116.552049,116.013851
叶集区,六安市,340000,31.996121,31.746146,116.228261,115.89268
霍邱县,六安市,340000,32.605085,31.93007,116.549462,115.844527
舒城县,六安市,340000,31.562067,31.019735,117.252611,116.433643
金寨县,六安市,340000,31.806905,31.112025,116.19773,115.371154
霍山县,六安市,340000,31.545099,31.011527,116.541748,115.886387
谯城区,亳州市,340000,34.076832,33.408377,116.079379,115.545852
涡阳县,亳州市,340000,33.783405,33.3429,116.551534,115.891001
蒙城县,亳州市,340000,33.485493,32.928667,116.828186,116.268586
利辛县,亳州市,340000,33.376055,32.858179,116.450073,115.824341
贵池区,池州市,340000,30.807379,30.247251,117.838575,117.109405
东至县,池州市,340000,30.495351,29.564722,117.305436,116.651024
石台县,池州市,340000,30.366531,29.983235,117.94068,117.212569
青阳县,池州市,340000,30.843789,30.324951,118.134951,117.682929
宣州区,宣城市,340000,31.322676,30.556235,119.075247,118.471272
郎溪县,宣城市,340000,31.303299,30.813013,119.380707,118.994988
泾县,宣城市,340000,30.849113,30.36872,118.67353,117.970111
绩溪县,宣城市,340000,30.337359,29.944307,118.929873,118.351239
旌德县,宣城市,340000,30.488143,30.122825,118.736103,118.266441
宁国市,宣城市,340000,30.931946,30.282804,119.40306,118.571582
广德市,宣城市,340000,31.1996,30.596013,119.649144,119.058647
鼓楼区,福州市,350000,26.124379,26.05842,119.322631,119.245128
台江区,福州市,350000,26.073622,26.03702,119.368695,119.271798
仓山区,福州市,350000,26.104756,25.95799,119.443704,119.222723
马尾区,福州市,350000,26.157602,25.976856,119.663246,119.376261
晋安区,福州市,350000,26.411724,26.028725,119.447891,119.17825
长乐区,福州市,350000,26.074383,25.667545,119.997654,119.402789
闽侯县,福州市,350000,26.603824,25.791429,119.425504,118.872424
连江县,福州市,350000,26.461948,26.0816,120.516189,119.278111
罗源县,福州市,350000,26.634377,26.381581,119.838009,119.123038
闽清县,福州市,350000,26.543521,25.921166,119.019072,118.515511
永泰县,福州市,350000,26.070657,25.659089,119.218124,118.38209
平潭县,福州市,350000,25.713768,25.249862,119.944273,119.560731
福清市,福州市,350000,25.849571,25.304391,119.681323,119.067393
思明区,厦门市,350000,24.504797,24.419683,118.212303,118.056348
海沧区,厦门市,350000,24.643437,24.418307,118.089642,117.886012
湖里区,厦门市,350000,24.561801,24.473951,118.204456,118.072162
集美区,厦门市,350000,24.750415,24.53608,118.137934,117.941036
同安区,厦门市,350000,24.902792,24.577218,118.263309,117.913026
翔安区,厦门市,350000,24.832494,24.512498,118.414778,118.153085
城厢区,莆田市,350000,25.587874,25.252016,119.051884,118.823271
涵江区,莆田市,350000,25.760288,25.387587,119.244351,118.850606
荔城区,莆田市,350000,25.558875,25.288496,119.241147,118.975278
秀屿区,莆田市,350000,25.358069,24.982319,119.669762,118.973723
仙游县,莆田市,350000,25.720826,25.153858,118.940304,118.459897
三元区,三明市,350000,26.41027,26.016258,117.801818,117.281312
沙县区,三明市,350000,26.680056,26.090558,118.116961,117.546092
明溪县,三明市,350000,26.661337,26.128996,117.595267,116.791086
清流县,三明市,350000,26.367123,25.783889,117.18066,116.644754
宁化县,三明市,350000,26.663961,25.966286,117.044248,116.384592
大田县,三明市,350000,26.16058,25.477681,118.043228,117.493953
尤溪县,三明市,350000,26.438296,25.823358,118.669933,117.804615
将乐县,三明市,350000,27.06517,26.422493,117.671466,117.089114
泰宁县,三明市,350000,27.126307,26.554893,117.405711,116.89323
建宁县,三明市,350000,27.101459,26.536185,117.066357,116.511996
永安市,三明市,350000,26.204392,25.559347,117.784084,116.936581
鲤城区,泉州市,350000,24.943216,24.865389,118.603123,118.496789
丰泽区,泉州市,350000,24.995715,24.845679,118.69595,118.539346
洛江区,泉州市,350000,25.302374,24.928223,118.722895,118.556928
泉港区,泉州市,350000,25.242689,25.084184,119.005649,118.70524
惠安县,泉州市,350000,25.132159,24.820568,119.047634,118.637915
安溪县,泉州市,350000,25.420799,24.847629,118.296137,117.555387
永春县,泉州市,350000,25.556551,25.214951,118.535827,117.691436
德化县,泉州市,350000,25.937016,25.395537,118.55008,117.936886
金门县,泉州市,350000,24.542998,24.371716,118.479456,118.142765
石狮市,泉州市,350000,24.815886,24.66261,118.786519,118.584364
晋江市,泉州市,350000,24.90375,24.5068,118.702965,118.412793
南安市,泉州市,350000,25.31007,24.561321,118.594897,118.13315
芗城区,漳州市,350000,24.69892,24.484256,117.721185,117.492954
龙文区,漳州市,350000,24.605452,24.477902,117.817736,117.668088
龙海区,漳州市,350000,24.590159,24.157657,118.24053,117.499355
长泰区,漳州市,350000,24.895686,24.565441,117.965405,117.601984
云霄县,漳州市,350000,24.229888,23.751794,117.534442,117.13006
漳浦县,漳州市,350000,24.35449,23.701234,118.044407,117.417475
诏安县,漳州市,350000,24.16584,23.561634,117.375655,116.926584
东山县,漳州市,350000,23.783591,23.528547,117.694974,117.291259
南靖县,漳州市,350000,24.990519,24.434699,117.612628,117.01497
平和县,漳州市,350000,24.576828,24.035132,117.522911,116.895719
华安县,漳州市,350000,25.211693,24.629354,117.74004,117.280676
延平区,南平市,350000,26.866429,26.243434,118.673065,117.84794
建阳区,南平市,350000,27.723765,27.106909,118.646122,117.523975
顺昌县,南平市,350000,27.194662,26.634449,118.251275,117.503044
浦城县,南平市,350000,28.312901,27.516686,118.835789,118.195706
光泽县,南平市,350000,27.983181,27.301101,117.682537,117.003407
松溪县,南平市,350000,27.846634,27.397148,118.913899,118.557609
政和县,南平市,350000,27.504352,27.053096,119.275321,118.547111
邵武市,南平市,350000,27.585206,26.920149,117.837208,117.043653
武夷山市,南平市,350000,28.075717,27.4545,118.336424,117.633094
建瓯市,南平市,350000,27.335963,26.645201,118.9581,117.983924
新罗区,龙岩市,350000,25.576721,24.781057,117.339289,116.679901
永定区,龙岩市,350000,25.08643,24.369863,117.084977,116.414873
长汀县,龙岩市,350000,26.03308,25.301448,116.674174,116.0054
上杭县,龙岩市,350000,25.448864,24.766813,116.946275,116.271897
武平县,龙岩市,350000,25.495941,24.793204,116.396421,115.85229
连城县,龙岩市,350000,25.932002,25.226883,117.172568,116.544565
漳平市,龙岩市,350000,25.785883,24.907925,117.749061,117.172826
蕉城区,宁德市,350000,26.970185,26.521107,119.81944,119.143855
霞浦县,宁德市,350000,27.110275,26.483125,120.548321,119.780596
古田县,宁德市,350000,26.872114,26.275321,119.392996,118.548472
屏南县,宁德市,350000,27.175524,26.727742,119.229164,118.671799
寿宁县,宁德市,350000,27.675362,27.167836,119.739221,119.240766
周宁县,宁德市,350000,27.320991,26.887379,119.488417,119.119612
柘荣县,宁德市,350000,27.324055,27.088224,120.062862,119.728733
福安市,宁德市,350000,27.397655,26.68221,119.867617,119.39136
福鼎市,宁德市,350000,27.439879,26.916874,120.727321,119.928605
东湖区,南昌市,360000,28.793292,28.667831,115.985652,115.868646
西湖区,南昌市,360000,28.675863,28.600045,115.919847,115.832855
青云谱区,南昌市,360000,28.65524,28.583133,115.956134,115.885108
青山湖区,南昌市,360000,28.734449,28.582793,116.055757,115.919015
新建区,南昌市,360000,29.122388,28.334441,116.409791,115.531596
红谷滩区,南昌市,360000,28.74461,28.360507,115.893057,115.65004
南昌县,南昌市,360000,28.960684,28.26829,116.324081,115.808159
安义县,南昌市,360000,29.018474,28.580219,115.764366,115.438705
进贤县,南昌市,360000,28.754164,28.157839,116.565482,116.025986
昌江区,景德镇市,360000,29.343539,29.103685,117.282883,117.008305
珠山区,景德镇市,360000,29.381207,29.201853,117.290767,117.16262
浮梁县,景德镇市,360000,29.927578,29.146793,117.707662,117.025819
乐平市,景德镇市,360000,29.220254,28.719209,117.557116,116.957078
安源区,萍乡市,360000,27.721882,27.542203,113.996287,113.769505
湘东区,萍乡市,360000,27.729269,27.331504,113.882577,113.578186
莲花县,萍乡市,360000,27.466491,26.95927,114.157973,113.771947
上栗县,萍乡市,360000,28.006307,27.650498,114.065561,113.696563
芦溪县,萍乡市,360000,27.771011,27.407851,114.281953,113.836221
濂溪区,九江市,360000,29.768086,29.516946,116.227049,115.87537
浔阳区,九江市,360000,29.761907,29.676096,116.086503,115.943698
柴桑区,九江市,360000,29.850194,29.344955,116.261459,115.620049
武宁县,九江市,360000,29.572157,28.873386,115.448205,114.478009
修水县,九江市,360000,29.365598,28.685179,114.945267,113.94206
永修县,九江市,360000,29.359598,28.892254,116.25446,115.386556
德安县,九江市,360000,29.542703,29.265603,115.821411,115.377531
都昌县,九江市,360000,29.632393,28.990243,116.646513,116.029931
湖口县,九江市,360000,29.855731,29.490536,116.421967,116.1265
彭泽县,九江市,360000,30.077213,29.572565,116.900133,116.371569
瑞昌市,九江市,360000,29.848661,29.391199,115.775116,115.105903
共青城市,九江市,360000,29.382628,29.146354,115.92943,115.693285
庐山市,九江市,360000,29.638052,29.148114,116.142124,115.849508
渝水区,新余市,360000,28.093837,27.582518,115.405804,114.742377
分宜县,新余市,360000,28.107643,27.530224,114.882782,114.485541
月湖区,鹰潭市,360000,28.301262,28.165764,117.141693,116.971557
余江区,鹰潭市,360000,28.608713,28.072301,117.147716,116.691461
贵溪市,鹰潭市,360000,28.627069,27.848052,117.466052,116.925853
章贡区,赣州市,360000,25.977632,25.655899,115.066203,114.784801
南康区,赣州市,360000,26.236242,25.463443,114.883896,114.490591
赣县区,赣州市,360000,26.272767,25.431324,115.365749,114.709153
信丰县,赣州市,360000,25.54525,24.985838,115.317323,114.571679
大余县,赣州市,360000,25.618421,25.250357,114.709131,114.007846
上犹县,赣州市,360000,26.168276,25.70164,114.66296,114.019007
崇义县,赣州市,360000,25.903844,25.396741,114.626495,113.913607
安远县,赣州市,360000,25.623453,24.868908,115.639866,115.160663
定南县,赣州市,360000,25.058944,24.56235,115.387841,114.804209
全南县,赣州市,360000,25.128714,24.563064,114.870859,114.168472
宁都县,赣州市,360000,27.143656,26.083964,116.288733,115.675043
于都县,赣州市,360000,26.345161,25.554083,115.835438,115.182263
兴国县,赣州市,360000,26.695416,26.047616,115.86551,115.026526
会昌县,赣州市,360000,25.914526,25.132749,116.037306,115.480962
寻乌县,赣州市,360000,25.240461,24.539362,115.928859,115.330872
石城县,赣州市,360000,26.599148,25.96292,116.638211,116.102125
瑞金市,赣州市,360000,26.292226,25.545828,116.370139,115.691037
龙南市,赣州市,360000,25.015119,24.486252,114.992828,114.387119
吉州区,吉安市,360000,27.290552,27.031403,115.114834,114.802809
青原区,吉安市,360000,27.160783,26.652696,115.511402,114.989208
吉安县,吉安市,360000,27.628793,26.819789,115.06409,114.418248
吉水县,吉安市,360000,27.56337,26.827085,115.627685,114.868507
峡江县,吉安市,360000,27.761874,27.412334,115.538157,114.880826
新干县,吉安市,360000,27.960504,27.499138,115.735105,115.252941
永丰县,吉安市,360000,27.518455,26.641831,115.935357,115.279488
泰和县,吉安市,360000,26.965812,26.447974,115.334938,114.425607
遂川县,吉安市,360000,26.711166,25.972184,114.77159,113.944511
万安县,吉安市,360000,26.730661,26.143434,115.099159,114.513784
安福县,吉安市,360000,27.607716,27.065964,114.798611,114.021786
永新县,吉安市,360000,27.223692,26.720393,114.483713,113.834587
井冈山市,吉安市,360000,26.833249,26.3642,114.481733,113.842524
袁州区,宜春市,360000,28.075373,27.545501,114.61164,113.891176
奉新县,宜春市,360000,28.862531,28.563183,115.560187,114.741575
万载县,宜春市,360000,28.459537,27.991261,114.608934,113.992637
上高县,宜春市,360000,28.429036,28.022273,115.16767,114.47832
宜丰县,宜春市,360000,28.695072,28.207344,115.135931,114.413473
靖安县,宜春市,360000,29.099707,28.766155,115.530586,114.904983
铜鼓县,宜春市,360000,28.829296,28.376666,114.737093,114.08618
丰城市,宜春市,360000,28.418016,27.725555,116.151432,115.43768
樟树市,宜春市,360000,28.151281,27.820943,115.721412,115.114623
高安市,宜春市,360000,28.638347,28.04275,115.5883,115.009479
临川区,抚州市,360000,28.246241,27.505832,116.656806,116.060911
东乡区,抚州市,360000,28.496885,28.028691,116.865953,116.342485
南城县,抚州市,360000,27.782326,27.281593,116.962709,116.397593
黎川县,抚州市,360000,27.566426,26.984375,117.171883,116.709961
南丰县,抚州市,360000,27.353548,26.851831,116.759025,116.15206
崇仁县,抚州市,360000,27.935695,27.415423,116.279191,115.827912
乐安县,抚州市,360000,27.745739,26.965057,116.075719,115.591853
宜黄县,抚州市,360000,27.717039,27.038977,116.482432,116.021217
金溪县,抚州市,360000,28.100107,27.680066,117.047428,116.463931
资溪县,抚州市,360000,27.909311,27.478496,117.30609,116.784342
广昌县,抚州市,360000,26.969216,26.499057,116.568771,116.118609
信州区,上饶市,360000,28.637228,28.374191,118.160299,117.927586
广丰区,上饶市,360000,28.624757,28.057459,118.487106,118.029483
广信区,上饶市,360000,28.837274,27.964939,118.225363,117.699932
玉山县,上饶市,360000,29.016102,28.493627,118.433863,117.861674
铅山县,上饶市,360000,28.401129,27.800311,117.99852,117.432237
横峰县,上饶市,360000,28.732601,28.285443,117.780483,117.493
弋阳县,上饶市,360000,28.784494,28.066547,117.632932,117.222202
余干县,上饶市,360000,29.053144,28.341078,116.906774,116.237892
鄱阳县,上饶市,360000,29.699254,28.779096,117.092485,116.4005
万年县,上饶市,360000,28.898833,28.496329,117.261422,116.777404
婺源县,上饶市,360000,29.578367,29.015896,118.209388,117.372703
德兴市,上饶市,360000,29.283174,28.638313,118.110679,117.388596
历下区,济南市,370000,36.710064,36.592259,117.180644,117.012698
市中区,济南市,370000,36.668881,36.483786,117.161777,116.817208
槐荫区,济南市,370000,36.746089,36.616388,116.989045,116.800521
天桥区,济南市,370000,36.86563,36.66395,117.084439,116.865544
历城区,济南市,370000,36.897078,36.330329,117.380484,116.933406
长清区,济南市,370000,36.700843,36.243195,117.080892,116.520384
章丘区,济南市,370000,37.076264,36.435405,117.747306,117.182712
济阳区,济南市,370000,37.245815,36.782789,117.459746,116.875023
莱芜区,济南市,370000,36.553854,36.047719,117.934558,117.33342
钢城区,济南市,370000,36.285839,35.990621,117.975332,117.689303
平阴县,济南市,370000,36.384254,36.031141,116.619933,116.226065
商河县,济南市,370000,37.532886,37.113516,117.445268,116.983999
市南区,青岛市,370000,36.092258,36.041385,120.426663,120.285819
市北区,青岛市,370000,36.160892,36.067551,120.434316,120.305016
黄岛区,青岛市,370000,36.145594,35.575601,120.333393,119.514825
崂山区,青岛市,370000,36.3415,35.888165,120.955248,120.411012
李沧区,青岛市,370000,36.238451,36.134346,120.51521,120.343439
城阳区,青岛市,370000,36.399433,36.173321,120.581464,120.106749
即墨区,青岛市,370000,36.632493,36.222298,121.017919,120.135783
胶州市,青岛市,370000,36.498984,36.010316,120.216083,119.631677
平度市,青岛市,370000,37.046905,36.471821,120.325672,119.530557
莱西市,青岛市,370000,37.149118,36.571829,120.660567,120.207369
淄川区,淄博市,370000,36.760798,36.375168,118.25156,117.690518
张店区,淄博市,370000,36.917043,36.710686,118.207063,117.934724
博山区,淄博市,370000,36.59657,36.268375,118.224748,117.722259
临淄区,淄博市,370000,37.006725,36.631634,118.497429,118.116885
周村区,淄博市,370000,36.892228,36.640986,117.980919,117.695126
桓台县,淄博市,370000,37.105207,36.861281,118.188031,117.837496
高青县,淄博市,370000,37.28265,37.062431,118.082957,117.550206
沂源县,淄博市,370000,36.391404,35.924326,118.522692,117.902591
市中区,枣庄市,370000,34.968234,34.771222,117.760708,117.469806
薛城区,枣庄市,370000,34.937759,34.620954,117.493522,117.162441
峄城区,枣庄市,370000,34.8503,34.571906,117.832494,117.393905
台儿庄区,枣庄市,370000,34.717543,34.461258,117.801957,117.392315
山亭区,枣庄市,370000,35.320479,34.898083,117.744613,117.248925
滕州市,枣庄市,370000,35.299385,34.822078,117.413113,116.811186
东营区,东营市,370000,37.537201,37.261763,119.012857,118.216886
河口区,东营市,370000,38.157623,37.766964,119.067498,118.212623
垦利区,东营市,370000,37.952105,37.415635,119.309142,118.25237
利津县,东营市,370000,38.145942,37.362579,118.711988,118.11243
广饶县,东营市,370000,37.359825,36.936349,119.03989,118.288824
芝罘区,烟台市,370000,37.635762,37.415496,121.555291,121.280534
福山区,烟台市,370000,37.726125,37.234215,121.367373,120.843195
牟平区,烟台市,370000,37.494692,37.072035,121.934174,121.155686
莱山区,烟台市,370000,37.527849,37.246214,121.565321,121.320382
蓬莱区,烟台市,370000,38.402247,37.416107,121.093412,120.583611
龙口市,烟台市,370000,37.791011,37.46017,120.751194,120.209571
莱阳市,烟台市,370000,37.161696,36.573937,120.992001,120.525024
莱州市,烟台市,370000,37.485246,36.988483,120.305035,119.558217
招远市,烟台市,370000,37.594717,37.077099,120.63806,120.148271
栖霞市,烟台市,370000,37.497227,37.085372,121.268453,120.551916
海阳市,烟台市,370000,37.175312,36.26216,121.478206,120.83971
潍城区,潍坊市,370000,36.824937,36.586553,119.117399,118.940499
寒亭区,潍坊市,370000,37.288187,36.72132,119.437813,118.894314
坊子区,潍坊市,370000,36.742619,36.273593,119.564821,119.065784
奎文区,潍坊市,370000,36.769463,36.608136,119.308926,119.096067
临朐县,潍坊市,370000,36.623045,36.067618,118.82775,118.235403
昌乐县,潍坊市,370000,36.773844,36.28212,119.179812,118.722765
青州市,潍坊市,370000,36.957091,36.407846,118.776121,118.176284
诸城市,潍坊市,370000,36.284139,35.709407,119.738039,119.01351
寿光市,潍坊市,370000,37.304466,36.719914,119.121795,118.544572
安丘市,潍坊市,370000,36.556186,36.084341,119.453982,118.739721
高密市,潍坊市,370000,36.690276,36.145219,120.015209,119.442708
昌邑市,潍坊市,370000,37.156524,36.442903,119.624685,119.217196
任城区,济宁市,370000,35.566296,35.127783,116.763952,116.401679
兖州区,济宁市,370000,35.724836,35.391665,116.897484,116.596313
微山县,济宁市,370000,35.330497,34.44969,117.410981,116.573934
鱼台县,济宁市,370000,35.169009,34.89492,116.814597,116.394469
金乡县,济宁市,370000,35.236979,34.849216,116.510642,116.11453
嘉祥县,济宁市,370000,35.638541,35.186626,116.515002,116.114085
汶上县,济宁市,370000,35.941014,35.514601,116.692742,116.309374
泗水县,济宁市,370000,35.798817,35.458624,117.596915,117.100694
梁山县,济宁市,370000,35.981899,35.614699,116.365761,115.870312
曲阜市,济宁市,370000,35.809741,35.448866,117.253124,116.851131
邹城市,济宁市,370000,35.507098,35.152165,117.479194,116.743976
泰山区,泰安市,370000,36.346757,36.091655,117.333483,117.059415
岱岳区,泰安市,370000,36.476049,35.875507,117.487939,116.848441
宁阳县,泰安市,370000,35.954052,35.678721,117.306499,116.609577
东平县,泰安市,370000,36.173759,35.774051,116.664892,116.048649
新泰市,泰安市,370000,36.111066,35.630463,117.999231,117.250454
肥城市,泰安市,370000,36.316525,35.884984,116.993613,116.4725
环翠区,威海市,370000,37.575228,37.217193,122.410345,121.865266
文登区,威海市,370000,37.346525,36.859377,122.315237,121.727611
荣成市,威海市,370000,37.45516,36.747327,122.71596,122.117459
乳山市,威海市,370000,37.146223,36.679497,121.863241,121.177558
东港区,日照市,370000,35.606855,35.203444,119.666538,119.033262
岚山区,日照市,370000,35.481366,35.070279,119.432435,118.870812
五莲县,日照市,370000,35.971211,35.531629,119.538756,118.925042
莒县,日照市,370000,36.0384,35.35952,119.111638,118.601044
兰山区,临沂市,370000,35.387198,35.019124,118.484989,118.111517
罗庄区,临沂市,370000,35.052199,34.757485,118.431043,118.099218
河东区,临沂市,370000,35.402462,34.829752,118.672549,118.367707
沂南县,临沂市,370000,35.770879,35.310683,118.740586,118.132339
郯城县,临沂市,370000,34.934932,34.377352,118.52454,118.078997
沂水县,临沂市,370000,36.206648,35.600546,119.067288,118.198021
兰陵县,临沂市,370000,35.094136,34.619507,118.301954,117.697706
费县,临沂市,370000,35.548,35.020763,118.248603,117.609854
平邑县,临沂市,370000,35.726038,35.128135,117.952951,117.418664
莒南县,临沂市,370000,35.393956,35.012448,119.203239,118.567548
蒙阴县,临沂市,370000,36.032512,35.440498,118.249489,117.750271
临沭县,临沂市,370000,35.098919,34.678243,118.865124,118.433693
德城区,德州市,370000,37.582067,37.266324,116.603569,116.224183
陵城区,德州市,370000,37.615662,37.208524,116.94762,116.392152
宁津县,德州市,370000,37.850406,37.525132,117.016086,116.514289
庆云县,德州市,370000,38.011243,37.648597,117.606557,117.303727
临邑县,德州市,370000,37.526592,36.997729,117.063553,116.699685
齐河县,德州市,370000,37.029171,36.408916,116.963787,116.399273
平原县,德州市,370000,37.315247,36.952966,116.718928,116.184396
夏津县,德州市,370000,37.165446,36.882186,116.272787,115.761379
武城县,德州市,370000,37.384841,37.048574,116.290516,115.864952
乐陵市,德州市,370000,37.857752,37.424231,117.35573,116.913912
禹城市,德州市,370000,37.201641,36.670673,116.748902,116.376016
东昌府区,聊城市,370000,36.713221,36.264613,116.247386,115.678725
茌平区,聊城市,370000,36.767264,36.387851,116.414407,115.900364
阳谷县,聊城市,370000,36.304269,35.928898,116.115601,115.651026
莘县,聊城市,370000,36.407407,35.779921,115.741902,115.334141
东阿县,聊城市,370000,36.524805,36.126835,116.549533,116.05514
冠县,聊城市,370000,36.703492,36.364847,115.784619,115.271448
高唐县,聊城市,370000,37.032217,36.649941,116.47113,116.011204
临清市,聊城市,370000,36.921004,36.640618,116.066725,115.442561
滨城区,滨州市,370000,37.60962,37.204084,118.176094,117.789388
沾化区,滨州市,370000,38.210222,37.563335,118.41995,117.734969
惠民县,滨州市,370000,37.577365,37.109947,117.839577,117.283057
阳信县,滨州市,370000,37.720185,37.458939,117.865801,117.264379
无棣县,滨州市,370000,38.311263,37.686731,118.142638,117.52171
博兴县,滨州市,370000,37.385249,36.962261,118.387606,118.045506
邹平市,滨州市,370000,37.146776,36.689651,117.961811,117.312931
牡丹区,菏泽市,370000,35.486807,35.034677,115.809388,115.187663
定陶区,菏泽市,370000,35.252701,34.959358,115.800087,115.341823
曹县,菏泽市,370000,35.053689,34.555567,115.877228,115.129224
单县,菏泽市,370000,34.947659,34.551606,116.408796,115.797216
成武县,菏泽市,370000,35.160997,34.8092,116.185336,115.737968
巨野县,菏泽市,370000,35.49535,35.103162,116.286225,115.776377
郓城县,菏泽市,370000,35.872783,35.359724,116.134367,115.653301
鄄城县,菏泽市,370000,35.751542,35.376928,115.731147,115.318834
东明县,菏泽市,370000,35.427796,34.968214,115.265123,114.819254
中原区,郑州市,410000,34.860223,34.703954,113.632646,113.453191
二七区,郑州市,410000,34.766461,34.600034,113.682375,113.504421
管城回族区,郑州市,410000,34.768866,34.613012,113.859662,113.657694
金水区,郑州市,410000,34.885651,34.734835,113.870156,113.613898
上街区,郑州市,410000,34.843908,34.714142,113.326189,113.245064
惠济区,郑州市,410000,34.968123,34.784066,113.801487,113.49732
中牟县,郑州市,410000,34.960025,34.435084,114.220961,113.789121
巩义市,郑州市,410000,34.864892,34.517349,113.278115,112.809842
荥阳市,郑州市,410000,34.989506,34.60669,113.522786,113.139799
新密市,郑州市,410000,34.665341,34.330831,113.679859,113.163485
新郑市,郑州市,410000,34.652112,34.274097,114.072929,113.510882
登封市,郑州市,410000,34.592697,34.262109,113.326752,112.721177
龙亭区,开封市,410000,34.939968,34.697411,114.45824,114.122491
顺河回族区,开封市,410000,34.85872,34.758345,114.495927,114.355747
鼓楼区,开封市,410000,34.800606,34.675081,114.368031,114.254348
禹王台区,开封市,410000,34.783842,34.702809,114.44612,114.320431
祥符区,开封市,410000,34.912463,34.508236,114.733141,114.150363
杞县,开封市,410000,34.763449,34.225222,114.937843,114.610476
通许县,开封市,410000,34.581448,34.25976,114.647719,114.308156
尉氏县,开封市,410000,34.617707,34.19727,114.456568,113.895671
兰考县,开封市,410000,35.0252,34.745386,115.267246,114.690555
老城区,洛阳市,410000,34.758231,34.664851,112.497399,112.389681
西工区,洛阳市,410000,34.734242,34.640472,112.465796,112.289897
瀍河回族区,洛阳市,410000,34.744695,34.670334,112.61813,112.470349
涧西区,洛阳市,410000,34.697287,34.59838,112.426605,112.282496
偃师区,洛阳市,410000,34.803935,34.467546,112.984738,112.617271
孟津区,洛阳市,410000,34.961364,34.718851,112.827295,112.21388
洛龙区,洛阳市,410000,34.710231,34.48492,112.703677,112.266076
新安县,洛阳市,410000,35.070236,34.602753,112.323002,111.883247
栾川县,洛阳市,410000,34.185988,33.657162,112.037198,111.203031
嵩县,洛阳市,410000,34.346101,33.570533,112.377098,111.702691
汝阳县,洛阳市,410000,34.35831,33.805896,112.620289,112.207654
宜阳县,洛阳市,410000,34.69669,34.271256,112.354575,111.753245
洛宁县,洛阳市,410000,34.629324,34.092484,111.832761,111.138444
伊川县,洛阳市,410000,34.544048,34.21264,112.776597,112.20597
新华区,平顶山市,410000,33.832211,33.703291,113.313568,113.070269
卫东区,平顶山市,410000,33.828126,33.71369,113.469588,113.28657
石龙区,平顶山市,410000,33.9283,33.826107,112.958213,112.840517
湛河区,平顶山市,410000,33.750374,33.651449,113.367373,113.137512
宝丰县,平顶山市,410000,34.028087,33.783655,113.305193,112.721842
叶县,平顶山市,410000,33.757663,33.336852,113.628188,113.022868
鲁山县,平顶山市,410000,33.989917,33.559078,113.238644,112.247705
郏县,平顶山市,410000,34.183443,33.797912,113.42092,113.001542
舞钢市,平顶山市,410000,33.42437,33.128414,113.688349,113.369006
汝州市,平顶山市,410000,34.345679,33.943042,113.106082,112.532573
文峰区,安阳市,410000,36.1122,35.959977,114.455801,114.339224
北关区,安阳市,410000,36.229524,36.094186,114.437602,114.332746
殷都区,安阳市,410000,36.208708,36.080542,114.339572,114.082844
龙安区,安阳市,410000,36.112005,35.959851,114.355147,113.989616
安阳县,安阳市,410000,36.359057,35.986232,114.765486,113.933987
汤阴县,安阳市,410000,36.009125,35.7607,114.711151,114.22903
滑县,安阳市,410000,35.697882,35.204858,114.985798,114.391176
内黄县,安阳市,410000,36.148446,35.645856,114.988897,114.587563
林州市,安阳市,410000,36.36656,35.672677,114.083185,113.636861
鹤山区,鹤壁市,410000,36.052121,35.91155,114.205015,114.028526
山城区,鹤壁市,410000,35.997832,35.842292,114.309423,114.146377
淇滨区,鹤壁市,410000,35.914116,35.640529,114.40882,114.013254
浚县,鹤壁市,410000,35.843979,35.444514,114.753375,114.260401
淇县,鹤壁市,410000,35.80735,35.501169,114.30227,113.996018
红旗区,新乡市,410000,35.347563,35.197791,114.100647,113.871223
卫滨区,新乡市,410000,35.3247,35.223271,113.89394,113.785289
凤泉区,新乡市,410000,35.451791,35.331843,113.970471,113.733303
牧野区,新乡市,410000,35.399004,35.304767,113.998243,113.781756
新乡县,新乡市,410000,35.361471,35.059068,114.057034,113.707415
获嘉县,新乡市,410000,35.34664,35.031141,113.749271,113.518791
原阳县,新乡市,410000,35.186795,34.877702,114.275328,113.592067
延津县,新乡市,410000,35.478304,35.104168,114.430344,113.991343
封丘县,新乡市,410000,35.228196,34.885231,114.782212,114.242024
卫辉市,新乡市,410000,35.704817,35.327454,114.337255,113.868377
辉县市,新乡市,410000,35.837289,35.288692,113.954424,113.383155
长垣市,新乡市,410000,35.390783,34.990972,115.017248,114.488337
解放区,焦作市,410000,35.312179,35.155525,113.261409,113.16869
中站区,焦作市,410000,35.353073,35.177585,113.215935,113.097278
马村区,焦作市,410000,35.357115,35.213287,113.448319,113.298996
山阳区,焦作市,410000,35.317623,35.097864,113.404393,113.093219
修武县,焦作市,410000,35.495044,35.135764,113.541695,113.14707
博爱县,焦作市,410000,35.362454,35.038318,113.181197,112.951402
武陟县,焦作市,410000,35.180976,34.906602,113.646866,113.157521
温县,焦作市,410000,35.046656,34.831097,113.222959,112.857456
沁阳市,焦作市,410000,35.308222,34.985194,113.049904,112.735286
孟州市,焦作市,410000,35.043339,34.810741,112.932188,112.569217
华龙区,濮阳市,410000,35.862747,35.678409,115.248965,114.887858
清丰县,濮阳市,410000,36.08447,35.77356,115.395982,114.920774
南乐县,濮阳市,410000,36.212988,35.981587,115.485169,115.014048
范县,濮阳市,410000,35.929887,35.630924,115.753128,115.352323
台前县,濮阳市,410000,36.112064,35.832936,116.100242,115.653076
濮阳县,濮阳市,410000,35.796723,35.337443,115.423596,114.874458
魏都区,许昌市,410000,34.094781,33.983963,113.885465,113.743481
建安区,许昌市,410000,34.185229,33.852744,114.088956,113.589223
鄢陵县,许昌市,410000,34.251933,33.770232,114.325057,114.050878
襄城县,许昌市,410000,34.029516,33.68753,113.763503,113.360738
禹州市,许昌市,410000,34.406932,33.987047,113.65866,113.066994
长葛市,许昌市,410000,34.337185,34.147199,114.140426,113.576673
源汇区,漯河市,410000,33.611632,33.44618,114.044963,113.790594
郾城区,漯河市,410000,33.763237,33.575605,114.118213,113.753043
召陵区,漯河市,410000,33.704314,33.423993,114.295333,114.038582
舞阳县,漯河市,410000,33.715495,33.404736,113.864409,113.466522
临颍县,漯河市,410000,33.98724,33.714984,114.159652,113.722426
湖滨区,三门峡市,410000,34.831824,34.666451,111.399904,111.136417
陕州区,三门峡市,410000,34.853267,34.417941,111.74008,111.028462
渑池县,三门峡市,410000,35.083294,34.596346,112.032405,111.552346
卢氏县,三门峡市,410000,34.386055,33.55048,111.36752,110.582005
义马市,三门峡市,410000,34.80273,34.692217,111.996473,111.825138
灵宝市,三门峡市,410000,34.738559,34.118871,111.191846,110.360476
宛城区,南阳市,410000,33.162619,32.630815,112.831072,112.469294
卧龙区,南阳市,410000,33.298368,32.704816,112.649263,112.301249
南召县,南阳市,410000,33.721775,33.19678,112.858232,111.915596
方城县,南阳市,410000,33.616118,33.064592,113.407405,112.632842
西峡县,南阳市,410000,33.801673,33.088751,111.835476,110.996718
镇平县,南阳市,410000,33.334489,32.849418,112.423869,111.974664
内乡县,南阳市,410000,33.599232,32.816965,112.162049,111.570833
淅川县,南阳市,410000,33.37256,32.593495,111.880715,110.982874
社旗县,南阳市,410000,33.151154,32.790919,113.208154,112.773648
唐河县,南阳市,410000,32.916845,32.342626,113.269327,112.474309
新野县,南阳市,410000,32.811524,32.321331,112.599998,112.223743
桐柏县,南阳市,410000,32.713419,32.269201,113.814453,113.007269
邓州市,南阳市,410000,32.997145,32.377101,112.348727,111.640802
梁园区,商丘市,410000,34.637266,34.323051,115.806127,115.396245
睢阳区,商丘市,410000,34.430346,34.056399,115.784801,115.332423
民权县,商丘市,410000,34.860669,34.525593,115.462244,114.826887
睢县,商丘市,410000,34.573949,34.205586,115.210461,114.848457
宁陵县,商丘市,410000,34.618979,34.246153,115.456291,115.145783
柘城县,商丘市,410000,34.27061,33.933337,115.549936,115.04956
虞城县,商丘市,410000,34.615168,34.000196,116.203934,115.678061
夏邑县,商丘市,410000,34.428659,33.992078,116.469801,115.879553
永城市,商丘市,410000,34.296459,33.70816,116.651641,115.977179
浉河区,信阳市,410000,32.335495,31.750199,114.213061,113.722427
平桥区,信阳市,410000,32.624248,32.02448,114.376622,113.710246
罗山县,信阳市,410000,32.313293,31.728054,114.714776,114.168904
光山县,信阳市,410000,32.192377,31.699386,115.186324,114.541636
新县,信阳市,410000,31.829987,31.458572,115.211654,114.548031
商城县,信阳市,410000,32.097721,31.382371,115.638425,115.114237
固始县,信阳市,410000,32.578233,31.756135,115.943405,115.349017
潢川县,信阳市,410000,32.378607,31.87084,115.378533,114.899029
淮滨县,信阳市,410000,32.637027,32.247061,115.596598,115.022221
息县,信阳市,410000,32.659964,32.135486,115.129529,114.567056
川汇区,周口市,410000,33.712122,33.500086,114.857002,114.582163
淮阳区,周口市,410000,33.925608,33.411759,115.091302,114.653508
扶沟县,周口市,410000,34.337315,33.850135,114.621066,114.259876
西华县,周口市,410000,33.979693,33.604261,114.727035,114.09152
商水县,周口市,410000,33.7431,33.297341,114.869942,114.24909
沈丘县,周口市,410000,33.528312,33.082709,115.365005,114.968014
郸城县,周口市,410000,33.816707,33.42469,115.639743,115.010431
太康县,周口市,410000,34.284633,33.899824,115.140468,114.538473
鹿邑县,周口市,410000,34.087674,33.717614,115.654332,115.062661
项城市,周口市,410000,33.513503,33.052739,115.07097,114.681369
驿城区,驻马店市,410000,33.153009,32.83562,114.244237,113.513556
西平县,驻马店市,410000,33.530877,33.185087,114.193913,113.606834
上蔡县,驻马店市,410000,33.482076,33.12756,114.730735,114.093088
平舆县,驻马店市,410000,33.171139,32.735008,114.936982,114.399947
正阳县,驻马店市,410000,32.801648,32.278718,114.902943,114.190248
确山县,驻马店市,410000,32.887829,32.447373,114.240927,113.628102
泌阳县,驻马店市,410000,33.163368,32.567287,113.661826,113.097764
汝南县,驻马店市,410000,33.182746,32.632733,114.593453,114.107704
遂平县,驻马店市,410000,33.304547,32.991308,114.180795,113.628358
新蔡县,驻马店市,410000,32.978629,32.579866,115.219704,114.633625
济源市,济源市,410000,35.279896,34.893754,112.767324,112.035077
江岸区,武汉市,420000,30.698808,30.573439,114.402796,114.256993
江汉区,武汉市,420000,30.64163,30.563536,114.303674,114.22557
硚口区,武汉市,420000,30.63167,30.560804,114.28485,114.154149
汉阳区,武汉市,420000,30.604278,30.453777,114.298812,114.124982
武昌区,武汉市,420000,30.627291,30.334295,114.430561,114.260424
青山区,武汉市,420000,30.676852,30.567534,114.562749,114.343762
洪山区,武汉市,420000,30.693493,30.381904,114.640973,114.172861
东西湖区,武汉市,420000,30.786726,30.583465,114.293113,113.894193
汉南区,武汉市,420000,30.374886,30.178967,114.112935,113.755895
蔡甸区,武汉市,420000,30.684233,30.249608,114.227828,113.702281
江夏区,武汉市,420000,30.53337,29.969076,114.597036,114.036724
黄陂区,武汉市,420000,31.36126,30.666421,114.617578,114.15711
新洲区,武汉市,420000,31.037122,30.556477,115.082572,114.472917
黄石港区,黄石市,420000,30.261657,30.205534,115.101734,115.008749
西塞山区,黄石市,420000,30.219932,30.122518,115.272849,115.016068
下陆区,黄石市,420000,30.232198,30.159871,115.068542,114.908288
铁山区,黄石市,420000,30.241464,30.183066,114.940299,114.85698
阳新县,黄石市,420000,30.155927,29.508951,115.511592,114.712826
大冶市,黄石市,420000,30.326216,29.851858,115.183098,114.531394
茅箭区,十堰市,420000,32.684767,32.392675,110.948687,110.587597
张湾区,十堰市,420000,32.768555,32.479687,110.862028,110.447436
郧阳区,十堰市,420000,33.256857,32.431119,111.27365,110.12751
郧西县,十堰市,420000,33.275616,32.785114,110.675225,109.438902
竹山县,十堰市,420000,32.619044,31.506252,110.438006,109.5656
竹溪县,十堰市,420000,32.481149,31.518804,110.129503,109.495442
房县,十堰市,420000,32.508614,31.563461,111.257142,110.046878
丹江口市,十堰市,420000,32.970234,32.241542,111.585837,110.806574
西陵区,宜昌市,420000,30.757441,30.678264,111.372274,111.266405
伍家岗区,宜昌市,420000,30.69627,30.594266,111.471606,111.287211
点军区,宜昌市,420000,30.776691,30.557478,111.394817,110.955682
猇亭区,宜昌市,420000,30.634009,30.45898,111.521401,111.386211
夷陵区,宜昌市,420000,31.46294,30.540277,111.659918,110.856356
远安县,宜昌市,420000,31.373006,30.881913,111.885149,111.248447
兴山县,宜昌市,420000,31.56938,31.08756,111.119151,110.426867
秭归县,宜昌市,420000,31.188715,30.636344,111.007606,110.318271
长阳土家族自治县,宜昌市,420000,30.773384,30.195808,111.34395,110.350922
五峰土家族自治县,宜昌市,420000,30.414214,29.943074,111.355448,110.255636
宜都市,宜昌市,420000,30.596605,30.093052,111.606972,111.104796
当阳市,宜昌市,420000,31.193565,30.503565,112.086441,111.544334
枝江市,宜昌市,420000,30.660908,30.254351,112.049853,111.444969
襄城区,襄阳市,420000,32.076902,31.778181,112.234885,111.822911
樊城区,襄阳市,420000,32.252567,32.019524,112.175674,111.737074
襄州区,襄阳市,420000,32.474242,31.835829,112.563119,111.803249
南漳县,襄阳市,420000,32.008869,31.228218,112.158339,111.406321
谷城县,襄阳市,420000,32.497973,31.879252,111.874819,111.128271
保康县,襄阳市,420000,32.108222,31.346455,111.550821,110.763974
老河口市,襄阳市,420000,32.628729,32.172396,112.014372,111.533192
枣阳市,襄阳市,420000,32.425459,31.635614,113.118715,112.461849
宜城市,襄阳市,420000,31.902637,31.43008,112.752279,111.955216
梁子湖区,鄂州市,420000,30.364015,30.015509,114.742936,114.503813
华容区,鄂州市,420000,30.616841,30.345387,114.851973,114.583248
鄂城区,鄂州市,420000,30.438208,30.203408,115.088665,114.660761
东宝区,荆门市,420000,31.464116,30.826075,112.358937,111.861107
掇刀区,荆门市,420000,31.062533,30.750985,112.351178,112.041743
沙洋县,荆门市,420000,30.934021,30.394458,112.721756,112.055603
钟祥市,荆门市,420000,31.61435,30.701573,113.012147,112.128233
京山市,荆门市,420000,31.449558,30.697666,113.49483,112.728351
孝南区,孝感市,420000,31.156536,30.755806,114.191799,113.833661
孝昌县,孝感市,420000,31.438923,31.034229,114.256328,113.814979
大悟县,孝感市,420000,31.854031,31.306113,114.59172,114.050301
云梦县,孝感市,420000,31.207615,30.753664,113.888515,113.633341
应城市,孝感市,420000,31.143721,30.712506,113.771902,113.328049
安陆市,孝感市,420000,31.465372,31.059496,113.951671,113.316679
汉川市,孝感市,420000,30.859099,30.380003,113.958213,113.373105
沙市区,荆州市,420000,30.438301,30.195188,112.527901,112.219698
荆州区,荆州市,420000,30.659305,30.115447,112.345594,111.908894
公安县,荆州市,420000,30.31297,29.617455,112.43379,111.810331
江陵县,荆州市,420000,30.274897,29.907183,112.746149,112.193977
石首市,荆州市,420000,29.94394,29.494852,112.806097,112.228287
洪湖市,荆州市,420000,30.204221,29.64023,114.091884,113.128906
松滋市,荆州市,420000,30.374598,29.884555,112.052855,111.243799
监利市,荆州市,420000,30.194577,29.430766,113.319915,112.597932
黄州区,黄冈市,420000,30.644041,30.400949,115.080722,114.835016
团风县,黄冈市,420000,30.896887,30.557954,115.238259,114.79144
红安县,黄冈市,420000,31.585758,30.926902,114.829836,114.402123
罗田县,黄冈市,420000,31.267911,30.585996,115.778629,115.103367
英山县,黄冈市,420000,31.147652,30.514717,116.071737,115.540499
浠水县,黄冈市,420000,30.810217,30.20812,115.632444,115.000338
蕲春县,黄冈市,420000,30.669712,29.985222,115.946149,115.209495
黄梅县,黄冈市,420000,30.306931,29.721132,116.135188,115.725927
麻城市,黄冈市,420000,31.604906,30.859239,115.476259,114.681237
武穴市,黄冈市,420000,30.216149,29.822984,115.83446,115.372539
咸安区,咸宁市,420000,30.033013,29.655501,114.7244,114.114945
嘉鱼县,咸宁市,420000,30.297013,29.789116,114.214131,113.661044
通城县,咸宁市,420000,29.394796,29.029488,114.067693,113.606461
崇阳县,咸宁市,420000,29.67702,29.205624,114.354041,113.731869
通山县,咸宁市,420000,29.845384,29.321791,114.969234,114.244582
赤壁市,咸宁市,420000,29.987502,29.4682,114.233859,113.538307
曾都区,随州市,420000,31.93936,31.326217,113.632253,113.246832
随县,随州市,420000,32.431988,31.348588,113.78347,112.729425
广水市,随州市,420000,32.088807,31.382408,114.128641,113.531037
恩施市,恩施土家族苗族自治州,420000,30.664708,29.836801,109.986554,109.099386
利川市,恩施土家族苗族自治州,420000,30.655317,29.708074,109.311396,108.366964
建始县,恩施土家族苗族自治州,420000,30.900479,30.110527,110.226882,109.556141
巴东县,恩施土家族苗族自治州,420000,31.395723,30.226729,110.539114,110.093627
宣恩县,恩施土家族苗族自治州,420000,30.218357,29.552674,109.931415,109.196456
咸丰县,恩施土家族苗族自治州,420000,30.043885,29.326304,109.341157,108.623511
来凤县,恩施土家族苗族自治州,420000,29.665531,29.115098,109.465258,109.028704
鹤峰县,恩施土家族苗族自治州,420000,30.238007,29.633437,110.642767,109.765473
仙桃市,仙桃市,420000,30.531543,30.06783,113.824757,112.943424
潜江市,潜江市,420000,30.644858,30.078164,113.033596,112.502247
天门市,天门市,420000,30.90375,30.378093,113.467362,112.592286
神农架林区,神农架林区,420000,31.860481,31.295158,110.982605,109.940552
芙蓉区,长沙市,430000,28.223802,28.172989,113.110949,112.976007
天心区,长沙市,430000,28.195624,27.965158,113.041285,112.927954
岳麓区,长沙市,430000,28.275305,27.971063,112.971803,112.612846
开福区,长沙市,430000,28.390882,28.195304,113.082179,112.907567
雨花区,长沙市,430000,28.189653,27.912705,113.186747,112.983956
望城区,长沙市,430000,28.559898,28.138147,113.049794,112.651128
长沙县,长沙市,430000,28.661612,28.030873,113.507366,112.978505
浏阳市,长沙市,430000,28.564896,27.848072,114.261264,113.177231
宁乡市,长沙市,430000,28.487831,27.87966,112.784684,111.896256
荷塘区,株洲市,430000,28.013721,27.827854,113.290566,113.136939
芦淞区,株洲市,430000,27.878536,27.743778,113.36249,113.113538
石峰区,株洲市,430000,28.024541,27.846409,113.258236,113.038443
天元区,株洲市,430000,27.853854,27.516852,113.148995,112.993804
渌口区,株洲市,430000,27.780175,27.204445,113.317219,112.969421
攸县,株洲市,430000,27.432495,26.768082,113.876182,113.164196
茶陵县,株洲市,430000,27.124706,26.503661,113.926857,113.355133
炎陵县,株洲市,430000,26.656462,26.039876,114.110128,113.582433
醴陵市,株洲市,430000,27.964779,27.374347,113.767669,113.170615
雨湖区,湘潭市,430000,28.073564,27.79849,113.010474,112.647928
岳塘区,湘潭市,430000,28.01089,27.790359,113.09128,112.88707
湘潭县,湘潭市,430000,27.941886,27.338039,113.058939,112.421278
湘乡市,湘潭市,430000,28.060184,27.480926,112.655959,111.999701
韶山市,湘潭市,430000,28.02911,27.837484,112.640987,112.404476
珠晖区,衡阳市,430000,27.027599,26.747499,112.737858,112.583332
雁峰区,衡阳市,430000,26.896794,26.774526,112.667477,112.546894
石鼓区,衡阳市,430000,27.016167,26.894869,112.66323,112.533576
蒸湘区,衡阳市,430000,26.957021,26.803213,112.605276,112.477858
南岳区,衡阳市,430000,27.331231,27.18943,112.781954,112.569249
衡阳县,衡阳市,430000,27.370185,26.872748,112.751887,112.001621
衡南县,衡阳市,430000,26.976301,26.543748,113.152947,112.116359
衡山县,衡阳市,430000,27.468306,26.974542,112.947086,112.461345
衡东县,衡阳市,430000,27.440232,26.781626,113.283946,112.743667
祁东县,衡阳市,430000,27.071903,26.46359,112.340475,111.543611
耒阳市,衡阳市,430000,26.705885,26.114208,113.23007,112.627637
常宁市,衡阳市,430000,26.601515,26.101051,112.693093,112.140251
双清区,邵阳市,430000,27.30594,27.18989,111.629643,111.464692
大祥区,邵阳市,430000,27.242735,27.076573,111.59823,111.379572
北塔区,邵阳市,430000,27.299674,27.193329,111.495756,111.353037
新邵县,邵阳市,430000,27.630578,27.240402,111.838656,111.14536
邵阳县,邵阳市,430000,27.268105,26.688855,111.676645,110.998378
隆回县,邵阳市,430000,27.660103,26.992898,111.236696,110.631319
洞口县,邵阳市,430000,27.370911,26.853624,110.959466,110.148528
绥宁县,邵阳市,430000,27.143236,26.262803,110.540031,109.826757
新宁县,邵阳市,430000,26.918071,26.248697,111.314604,110.488289
城步苗族自治县,邵阳市,430000,26.709766,25.962726,110.623056,109.966249
武冈市,邵阳市,430000,27.032492,26.546146,111.036646,110.433301
邵东市,邵阳市,430000,27.461146,26.923415,112.094013,111.574982
岳阳楼区,岳阳市,430000,29.455373,29.236187,113.351449,113.071847
云溪区,岳阳市,430000,29.635214,29.391572,113.435117,113.153372
君山区,岳阳市,430000,29.640681,29.313097,113.141115,112.6296
岳阳县,岳阳市,430000,29.510374,28.951028,113.737148,112.772595
华容县,岳阳市,430000,29.80318,29.168286,113.030971,112.315726
湘阴县,岳阳市,430000,28.984073,28.500641,113.037897,112.510601
平江县,岳阳市,430000,29.105317,28.422183,114.157127,113.176867
汨罗市,岳阳市,430000,29.061031,28.460319,113.447126,112.872745
临湘市,岳阳市,430000,29.848931,29.196063,113.755014,113.307767
武陵区,常德市,430000,29.185581,28.887166,111.843665,111.588106
鼎城区,常德市,430000,29.390851,28.581214,112.183559,111.462379
安乡县,常德市,430000,29.769825,29.134496,112.303956,111.980501
汉寿县,常德市,430000,29.13491,28.614278,112.306387,111.705544
澧县,常德市,430000,29.954524,29.443763,112.076876,111.214588
临澧县,常德市,430000,29.767202,29.258012,111.843818,111.427479
桃源县,常德市,430000,29.406815,28.404902,111.616343,110.852091
石门县,常德市,430000,30.126363,29.270917,111.543373,110.491577
津市市,常德市,430000,29.730868,29.270017,112.045403,111.771273
永定区,张家界市,430000,29.376905,28.874109,110.915172,110.070062
武陵源区,张家界市,430000,29.450801,29.216957,110.695913,110.307732
慈利县,张家界市,430000,29.696286,29.062445,111.337528,110.565569
桑植县,张家界市,430000,29.789678,29.287865,110.767896,109.701234
资阳区,益阳市,430000,28.824172,28.575701,112.621562,112.092893
赫山区,益阳市,430000,28.654807,28.274464,112.736277,112.196458
南县,益阳市,430000,29.524275,29.045217,112.813464,112.187742
桃江县,益阳市,430000,28.67696,28.210458,112.322885,111.607125
安化县,益阳市,430000,28.639648,27.974829,111.987107,110.721085
沅江市,益阳市,430000,29.186088,28.702919,112.949378,112.246898
北湖区,郴州市,430000,25.877075,25.432164,113.08394,112.69713
苏仙区,郴州市,430000,26.053184,25.503038,113.277464,112.907025
桂阳县,郴州市,430000,26.221065,25.450116,112.936242,112.229692
宜章县,郴州市,430000,25.695568,24.890525,113.347839,112.632789
永兴县,郴州市,430000,26.486463,25.976331,113.604308,112.721897
嘉禾县,郴州市,430000,25.789356,25.435506,112.596328,112.238427
临武县,郴州市,430000,25.584751,25.124399,112.790639,112.344142
汝城县,郴州市,430000,25.884444,25.306259,113.993286,113.279672
桂东县,郴州市,430000,26.214504,25.730564,114.237509,113.62264
安仁县,郴州市,430000,26.837559,26.282728,113.617521,113.095583
资兴市,郴州市,430000,26.2846,25.561114,113.738825,113.108675
零陵区,永州市,430000,26.3572,25.853773,111.962459,111.189531
冷水滩区,永州市,430000,26.818446,26.244516,111.815287,111.468857
东安县,永州市,430000,26.868138,26.116042,111.576733,111.001555
双牌县,永州市,430000,26.165654,25.600699,111.986159,111.402176
道县,永州市,430000,25.848087,25.15061,111.925521,111.305023
江永县,永州市,430000,25.477146,24.914453,111.542483,110.951707
宁远县,永州市,430000,26.135352,25.197574,112.258872,111.73297
蓝山县,永州市,430000,25.614971,25.007098,112.458429,111.914332
新田县,永州市,430000,26.111859,25.659321,112.392078,112.046319
江华瑶族自治县,永州市,430000,25.325415,24.636323,112.175949,111.430849
祁阳市,永州市,430000,26.849166,26.033431,112.244366,111.589903
鹤城区,怀化市,430000,27.794683,27.440912,110.094908,109.789341
中方县,怀化市,430000,27.744784,27.268944,110.495288,109.759703
沅陵县,怀化市,430000,29.035973,28.081222,111.115147,110.103016
辰溪县,怀化市,430000,28.21782,27.579871,110.536468,109.915997
溆浦县,怀化市,430000,28.300955,27.278555,111.022312,110.270261
会同县,怀化市,430000,27.15057,26.662233,110.148528,109.43588
麻阳苗族自治县,怀化市,430000,28.029792,27.532363,110.096559,109.417991
新晃侗族自治县,怀化市,430000,27.450487,26.999379,109.446164,108.790841
芷江侗族自治县,怀化市,430000,27.635372,27.068411,109.91339,109.294225
靖州苗族侗族自治县,怀化市,430000,26.785739,26.26407,109.946207,109.271437
通道侗族自治县,怀化市,430000,26.477083,25.865948,110.017679,109.439613
洪江市,怀化市,430000,27.477821,26.989255,110.527738,109.537756
娄星区,娄底市,430000,27.96941,27.539829,112.191192,111.865047
双峰县,娄底市,430000,27.710563,27.203953,112.524192,111.869155
新化县,娄底市,430000,28.234296,27.525101,111.691562,110.767768
冷水江市,娄底市,430000,27.836717,27.522912,111.613128,111.319268
涟源市,娄底市,430000,28.030928,27.445125,112.035024,111.556978
吉首市,湘西土家族苗族自治州,430000,28.47301,28.134948,110.060129,109.458443
泸溪县,湘西土家族苗族自治州,430000,28.452686,27.907915,110.244357,109.659865
凤凰县,湘西土家族苗族自治州,430000,28.316812,27.720287,109.804028,109.298573
花垣县,湘西土家族苗族自治州,430000,28.622587,28.178808,109.648828,109.256869
保靖县,湘西土家族苗族自治州,430000,28.912084,28.400276,109.835008,109.180592
古丈县,湘西土家族苗族自治州,430000,28.76341,28.394419,110.274469,109.755442
永顺县,湘西土家族苗族自治州,430000,29.445256,28.70405,110.396331,109.591147
龙山县,湘西土家族苗族自治州,430000,29.634526,28.768429,109.828917,109.225936
荔湾区,广州市,440000,23.159613,23.041863,113.276887,113.17712
越秀区,广州市,440000,23.168854,23.105325,113.323058,113.240459
海珠区,广州市,440000,23.11372,23.043635,113.419714,113.242077
天河区,广州市,440000,23.245878,23.098121,113.448038,113.300979
白云区,广州市,440000,23.428664,23.138044,113.510165,113.149365
黄埔区,广州市,440000,23.412168,23.030213,113.607677,113.398067
番禺区,广州市,440000,23.080219,22.856961,113.5751,113.249463
花都区,广州市,440000,23.615999,23.231777,113.475969,112.958507
南沙区,广州市,440000,22.908406,22.51436,113.740462,113.296142
从化区,广州市,440000,23.932987,23.367777,114.059957,113.281547
增城区,广州市,440000,23.619882,23.084203,114.001529,113.54777
武江区,韶关市,440000,24.916791,24.520776,113.593656,113.12703
浈江区,韶关市,440000,25.093835,24.703674,113.726391,113.433822
曲江区,韶关市,440000,24.872121,24.4537,113.977951,113.207285
始兴县,韶关市,440000,25.143868,24.518512,114.404846,113.882097
仁化县,韶关市,440000,25.452549,24.817766,114.05614,113.514197
翁源县,韶关市,440000,24.653947,24.120257,114.311594,113.661003
乳源瑶族自治县,韶关市,440000,25.147106,24.467681,113.465147,112.884505
新丰县,韶关市,440000,24.291274,23.887916,114.600047,113.718614
乐昌市,韶关市,440000,25.516771,24.957963,113.583329,112.851792
南雄市,韶关市,440000,25.417031,24.947719,114.749356,113.931899
罗湖区,深圳市,440000,22.616449,22.526936,114.220011,114.066242
福田区,深圳市,440000,22.587531,22.499501,114.105177,113.990545
南山区,深圳市,440000,22.652478,22.396344,114.026421,113.786278
宝安区,深圳市,440000,22.861748,22.526416,113.98009,113.751453
龙岗区,深圳市,440000,22.813691,22.438581,114.628466,114.050093
盐田区,深圳市,440000,22.653829,22.540043,114.353515,114.202883
龙华区,深圳市,440000,22.771822,22.580561,114.113366,113.966593
坪山区,深圳市,440000,22.78132,22.622177,114.445342,114.267002
光明区,深圳市,440000,22.832806,22.68582,114.009204,113.857808
香洲区,珠海市,440000,22.443655,21.806335,114.325757,113.413314
斗门区,珠海市,440000,22.402759,22.081113,113.430558,113.084824
金湾区,珠海市,440000,22.197651,21.831696,113.482666,113.090762
澳门大学横琴校区(由澳门实施管辖),珠海市,440000,22.133954,22.117639,113.55244,113.545246
龙湖区,汕头市,440000,23.471093,23.304996,116.841419,116.698477
金平区,汕头市,440000,23.464762,23.319562,116.72655,116.56836
濠江区,汕头市,440000,23.344261,23.198641,116.823513,116.614783
潮阳区,汕头市,440000,23.513169,23.14651,116.70348,116.316916
潮南区,汕头市,440000,23.302862,23.039823,116.615389,116.24457
澄海区,汕头市,440000,23.645782,23.380717,116.918365,116.703
南澳县,汕头市,440000,23.485141,23.217422,117.318621,116.916411
禅城区,佛山市,440000,23.062206,22.921949,113.168302,112.978944
